[
  {
    "file": "12077251311.md",
    "title": "*DIY*數位生態系統(2)-Arduino藍芽應用",
    "hours": "null"
  },
  {
    "file": "12077263533.md",
    "title": "*DIY*數位生態系統(1)-魚菜共生 Arduino 應用",
    "hours": "null"
  },
  {
    "file": "12077829366.md",
    "title": "Slave遠遙端程式碼",
    "hours": "null"
  },
  {
    "file": "12077829636.md",
    "title": "Master主控室程式碼",
    "hours": "null"
  },
  {
    "file": "12077832906.md",
    "title": "全自動程式碼",
    "hours": "null"
  },
  {
    "file": "12078061170.md",
    "title": "【實用工具】2018年颱風目前動向/各縣市放假公告",
    "hours": "null"
  },
  {
    "file": "12082057317.md",
    "title": "申請ThingSpeak帳戶教學",
    "hours": "null"
  },
  {
    "file": "12082060758.md",
    "title": "SerialTest",
    "hours": "null"
  },
  {
    "file": "12082061583.md",
    "title": "OnlineTest",
    "hours": "null"
  },
  {
    "file": "12083024121.md",
    "title": "WIFI_OnlineTest_blocking",
    "hours": "null"
  },
  {
    "file": "12083025372.md",
    "title": "*教學*Arduino WIFI(ESP8266) Time同步設計",
    "hours": "null"
  },
  {
    "file": "12086408307.md",
    "title": "*美食*信義區超熱門排隊店_Honey pig 24小時營業韓式烤肉",
    "hours": "24 小時營業"
  },
  {
    "file": "12086445234.md",
    "title": "*展覽*台北華山1914文創園區_夢幻金魚特展",
    "hours": "2015.06.19(五)~ 2015.09.13(日)"
  },
  {
    "file": "12087370986.md",
    "title": "*DIY*數位生態系統(3)-水草造景缸",
    "hours": "null"
  },
  {
    "file": "12087470730.md",
    "title": "*美食*Second Floor Cafe貳樓餐廳_微風台北車站店",
    "hours": "Mon-Sun 10:00~22:00"
  },
  {
    "file": "12088665150.md",
    "title": "*美食*台北信義區統一時代百貨_泰一格韓國年糕火鍋",
    "hours": "AM11:00~PM21:00官方粉絲團:https://www.facebook.com/tigertopoki需加收一成服務費"
  },
  {
    "file": "12092108088.md",
    "title": "*DIY*數位生態系統(4)-藍芽監控盒",
    "hours": "null"
  },
  {
    "file": "12096439405.md",
    "title": "*DIY*數位生態系統(5)-水質檢測 5合1試紙 (NO3,NO2,gH,kH,pH)",
    "hours": "null"
  },
  {
    "file": "12097825063.md",
    "title": "*創作*油畫全紀錄 數字油畫 巴洛克風情",
    "hours": "null"
  },
  {
    "file": "12098930902.md",
    "title": "*DIY*數位生態系統(6)- 大河藻蝦會不會吃水晶蝦呢?",
    "hours": "null"
  },
  {
    "file": "12105933271.md",
    "title": "*旅遊*台中一日遊怎麼玩?!中社花海、心之芳庭、東海大學、宮原眼科、逢甲夜市",
    "hours": "早上8:00至下午18:00\\_"
  },
  {
    "file": "12106284496.md",
    "title": "*旅遊*陽明山景點。台北奧萬大樂活莊園",
    "hours": "null"
  },
  {
    "file": "12112006345.md",
    "title": "*美食*板橋早午餐推薦-好食光good time超牽絲蛋餅~~",
    "hours": "平日 07:30-15:00 假日 08:00-15:30\\_每週二公休"
  },
  {
    "file": "12116245072.md",
    "title": "*美食*台北松山區茹絲葵牛排餐廳。生日聚餐好地點",
    "hours": "null"
  },
  {
    "file": "12117465766.md",
    "title": "*旅遊*桃園景點規劃好玩又好吃。韭菜花田、大溪河岸童話森林、林家古厝、大方蘭州拉麵",
    "hours": "平日：11:00~18:00假日：10:00~18:00"
  },
  {
    "file": "12118837180.md",
    "title": "*美食*板橋六必居潮州砂鍋粥。料多實在的蟹膏粥",
    "hours": "11:30 - 14:00、17:00 - 00:00"
  },
  {
    "file": "12127932508.md",
    "title": "*美食*MR拉麵台北公館店 超平價拉麵學生最愛 雞塊拉麵 豬排起司蓋飯",
    "hours": "11:00-21:00"
  },
  {
    "file": "12133723429.md",
    "title": "*美食*涓豆腐韓式料理 微風台北車站店 小菜吃到飽 韓式嫩豆腐煲",
    "hours": "週一~週日 10:00~22:00"
  },
  {
    "file": "12135126367.md",
    "title": "*美食*新北市新店區68食堂 隱藏版美食 酸辣檸檬魚大推!! 創意中式料理",
    "hours": "null"
  },
  {
    "file": "12136694017.md",
    "title": "*美食*台北大同區老牌張豬腳飯 腿庫肉超Q彈美味超下飯",
    "hours": "11:00~20:30 週一公休"
  },
  {
    "file": "12138609760.md",
    "title": "*美食*秋天就是要吃螃蟹！十二籃粥火鍋 蟹黃豐腴飽滿 CP值超高又新鮮",
    "hours": "null"
  },
  {
    "file": "12142269550.md",
    "title": "*美食*公館So Free Pizza柴燒窯烤比薩 台大隱藏版美食 平價又好吃",
    "hours": "11:30 到 21:00"
  },
  {
    "file": "12143431792.md",
    "title": "*遊記*貓空正大休閒茶園 悠閒泡茶 露天雅座景觀餐廳",
    "hours": "週二~週日 10:00-22:00(週一公休，遇國定假日除外)"
  },
  {
    "file": "12145543618.md",
    "title": "微涼天氣最適合踏青了!!苗栗一日遊景點 來飛牛牧場餵羊咩咩吃草 好望角賞海看風車 新竹青青草原",
    "hours": "null"
  },
  {
    "file": "12152772457.md",
    "title": "*美食*捷運市政府站。薄多義。信義區竟然能吃到平價又好吃的義式料理",
    "hours": "週一~週日11:30-16:00、17:30-21:30"
  },
  {
    "file": "12159708082.md",
    "title": "*美食*永和區和陞屋牛排。牛排比臉還大。濃湯飲料無限續",
    "hours": "null"
  },
  {
    "file": "12160517401.md",
    "title": "*美食*三重頂呱呱吃到飽TKK Buffet 。學生小資族最愛。無限供應吃到飽",
    "hours": ">-"
  },
  {
    "file": "12164747068.md",
    "title": "*宜蘭*礁溪湯圍溝溫泉魚主題文化館。快來給魚咬腳皮~~",
    "hours": "null"
  },
  {
    "file": "12165872218.md",
    "title": "*宜蘭*礁溪美食。合鴨米灶腳。在地人也愛吃的平民美食",
    "hours": "11:00-14:00、17:00~20:00 (週日到19:30)(週二公休)"
  },
  {
    "file": "12166988656.md",
    "title": "*美食*羴大王羊肉爐吃到飽。食材超新鮮沒有羊騷味。夏天賣冰、冬天賣羊肉爐",
    "hours": "上午11：00～凌晨1：00"
  },
  {
    "file": "12172673044.md",
    "title": "*宜蘭礁溪*水鹿咖啡館。觀光牧場親子餐廳",
    "hours": "1130AM~2100PM"
  },
  {
    "file": "12174663532.md",
    "title": "*宜蘭景點介紹*養蜂人家-蜂采館。全國唯一蜜蜂生態博物館",
    "hours": "8:30~17:00"
  },
  {
    "file": "12174749200.md",
    "title": "*美食*七十二牛肉麵。美味國民美食來了。湯頭燉煮72小時",
    "hours": "週二到週五11:00~14:30；17:00~21:00"
  },
  {
    "file": "12175534636.md",
    "title": "*宜蘭景點*勝洋水草休閒農場。一起進入水草世界~~水草人文空間。咖啡輕食下午茶",
    "hours": "null"
  },
  {
    "file": "12177133849.md",
    "title": "*新店美食*大象王朝雲泰料理。百元泰式料理。平價又好吃",
    "hours": "11:30~14:00、17:00~21:00"
  },
  {
    "file": "12177852637.md",
    "title": "*美食*台北京站旁。匠太郎創作日本料理。平價份量多又有飽足感",
    "hours": "週一至週四，11:30~21:30"
  },
  {
    "file": "12178054786.md",
    "title": "*美食*還我牛美式碳烤牛排餐廳。邊看體育賽事邊享用牛排♥",
    "hours": "星期二至星期日 上午11:30~14:30、下午17:30~21:30"
  },
  {
    "file": "12178501420.md",
    "title": "*台北南港*好客迴轉火鍋♥全台第一家冷藏迴轉軌道。每鍋188元起(文末留言抽餐卷唷)",
    "hours": "null"
  },
  {
    "file": "12178702573.md",
    "title": "*美食*土城皇饌砂鍋粥。蟹膏粥料多實在。砂鍋粥暖心又暖胃",
    "hours": "11:00~14:00、17:00~23:00"
  },
  {
    "file": "12178718344.md",
    "title": "*美食*銀座杏子日式豬排。腰內肉豬排超級無敵美味呀~~",
    "hours": "(一)~(日) 11：00~22：00"
  },
  {
    "file": "12179377579.md",
    "title": "*汐止景點*新山夢湖。碧綠的清澈湖水。美景盡收眼底",
    "hours": "null"
  },
  {
    "file": "12179681200.md",
    "title": "*美食*新北市板橋區。皇璽北海道昆布鍋★美味湯底+甜嫩肉質+新鮮海鮮",
    "hours": "週一-週日: 11:00 到 23:00"
  },
  {
    "file": "12180249034.md",
    "title": "*微風信義*點點心。超萌的豬仔流沙包每日可賣上千個。脆皮鮮蝦腸必點!!!",
    "hours": "週日-週三:11:00-21:30/週四-週六:11:00-22:00"
  },
  {
    "file": "12180463030.md",
    "title": "*台北信義*道頓堀御好燒連鎖店。想吃大阪燒不用跑到日本啦~~",
    "hours": "週一~週日11:00~22:00"
  },
  {
    "file": "12180604702.md",
    "title": "*甜點*櫻桃小丸子 x 木匠手作獨家限定-現烤起司蛋糕199元。七種經典角色任你選",
    "hours": "null"
  },
  {
    "file": "12181387855.md",
    "title": "*食譜分享*黑糖薑汁地瓜湯。冬日必喝的暖心甜湯",
    "hours": "null"
  },
  {
    "file": "12181517782.md",
    "title": "*超實用*網路表情符號ლ(・ω・ლ)",
    "hours": "null"
  },
  {
    "file": "12181676485.md",
    "title": "*美食*從小吃到大的萬華阿伯蛋包麵。最愛半熟蛋+Q彈麵條",
    "hours": "null"
  },
  {
    "file": "12181838775.md",
    "title": "*萬華美食*方圓涮涮屋，平價高級肉專賣。最愛大份量肉盤~~超滿足(已歇業)",
    "hours": "早上11:00-15:00及晚上17:30-22:00"
  },
  {
    "file": "12182316574.md",
    "title": "OnlineTest (Improved)",
    "hours": "null"
  },
  {
    "file": "12182968045.md",
    "title": "*食譜分享*麻油雞湯。天冷來一碗~暖心又暖胃",
    "hours": "null"
  },
  {
    "file": "12183008551.md",
    "title": "*教學*Arduino WIFI(ESP8266) 入門應用<網頁控制LED>",
    "hours": "null"
  },
  {
    "file": "12183285256.md",
    "title": "*新竹景點*眷村博物館。充滿懷舊眷村場景",
    "hours": "週二至週日\\_09:00-17:00\\_(週一、民俗假日及選舉日休館)"
  },
  {
    "file": "12183302209.md",
    "title": "*新竹景點*西瓜莊園文化教育園區。以西瓜為主題的親子餐廳",
    "hours": "週一、週二公休週三 – 週日: 10:30 – 18:30"
  },
  {
    "file": "12184385107.md",
    "title": "*夢卡朵蛋糕*嚴選蜂蜜蛋糕。每口超扎實甜而不膩。下午茶最佳首選",
    "hours": "10:00~22:00"
  },
  {
    "file": "12184511755.md",
    "title": "*食譜分享*麻油九層塔烘蛋。乎你補氣兼暖身。平底鍋料理",
    "hours": "null"
  },
  {
    "file": "12184639069.md",
    "title": "*台北東區*跳舞香水。金磚蜜糖吐司。下午茶最佳首選",
    "hours": "null"
  },
  {
    "file": "12184794781.md",
    "title": "*淡水景點*桃樂絲森林(穀興農場)。週休二日最佳的休閒去處",
    "hours": "null"
  },
  {
    "file": "12185601781.md",
    "title": "*板橋美食*安格士牛排。價格便宜。迴轉壽司、酥皮濃湯、鐵板料理吃到飽",
    "hours": "11:30至22:00"
  },
  {
    "file": "12185800675.md",
    "title": "*台北美食*麵屋武藏。白芝麻叉燒太刀拉麵 必點!!!",
    "hours": "null"
  },
  {
    "file": "12186987298.md",
    "title": "*台北信義*海底撈火鍋。服務真的一級棒!!食材新鮮又美味~~",
    "hours": "11:00"
  },
  {
    "file": "12188042521.md",
    "title": "*台北信義*Garrett Popcorn來自美國芝加哥最好吃的爆米花終於登台囉！最愛《芝加哥招牌混搭》甜鹹混合口味",
    "hours": "null"
  },
  {
    "file": "12188183914.md",
    "title": "*台北貓空*「龍門客棧」泡茶聚餐約會看夜景的景觀餐廳。茶葉炒飯+茶油麵線充滿茶葉香氣，好美味呀~~~",
    "hours": "早上11:00~凌晨2:00"
  },
  {
    "file": "12189040429.md",
    "title": "*宜蘭蘇澳新景點*奇麗灣珍奶文化館。為了燈泡珍奶慕名而來~~",
    "hours": "9:00 - 17:30"
  },
  {
    "file": "12189265234.md",
    "title": "*宜蘭蘇澳新景點*祝大漁物產文創館。360度3D海底隧道，彷彿置身海底世界~~",
    "hours": "每日09：00~17：00"
  },
  {
    "file": "12189274486.md",
    "title": "*宜蘭礁溪*樂山溫泉拉麵。礁溪泡腳拉麵創始店，強棒拉麵料多豐富",
    "hours": "11:00~14:00；17:00~21:00"
  },
  {
    "file": "12189370822.md",
    "title": "*宜蘭五結美食*【湯蒸火鍋】在地人推薦的高CP值火鍋店",
    "hours": "週一 - 週六: 11:00 - 14:00 、 17:00 - 22:30 週日: 11:00 - 22:30"
  },
  {
    "file": "12189377245.md",
    "title": "【宜蘭景點&美食懶人包】34個宜蘭景點+26家宜蘭美食，包含親子景點/情侶約會/住宿，一次通通報你知!(2023.07月更新)",
    "hours": "9:00-17:30"
  },
  {
    "file": "12189467845.md",
    "title": "*台北圓山*小里子海鮮店，宴席包辦最佳首選~每道菜澎湃又新鮮!!",
    "hours": "平日 12:00~14:30、18:00~21:30、假日 12:00~14:30"
  },
  {
    "file": "12189562387.md",
    "title": "*台北信義*鬍子叔叔義麵工坊，信義區也能吃到平價高CP值的義大利麵、燉飯、焗烤飯",
    "hours": "null"
  },
  {
    "file": "12189650512.md",
    "title": "*宜蘭冬山*廣興農場-鴨母寮豬哥窟，適合親子出遊的景點",
    "hours": "null"
  },
  {
    "file": "12190367986.md",
    "title": "*台北中山*這一鍋皇室秘藏鍋物，冬天必吃這一鍋!",
    "hours": "11:30AM~01:00AM"
  },
  {
    "file": "12190825186.md",
    "title": "*永和*何鎮有純手工湯圓豆花，花生湯芝麻湯圓超讚啦~~",
    "hours": "早上09:00~下午19:00，每週六公休"
  },
  {
    "file": "12190905775.md",
    "title": "*淡水美食*淡金路平價小吃大雞大，白斬土雞油亮鮮美",
    "hours": "11:00–21:00(每週二公休)"
  },
  {
    "file": "12190940965.md",
    "title": "*台北美食*遼寧夜市‧阿圖麻油雞，麻油雞暖到心坎裡",
    "hours": "null"
  },
  {
    "file": "12191034448.md",
    "title": "*新莊美食*品花苑自助式吃到飽，大胃王快衝阿~~~(已歇業)",
    "hours": "11:30"
  },
  {
    "file": "12191339125.md",
    "title": "*新竹*星上星港式飲茶(竹北店)，餐點高CP值，不收服務費!茶資一個人才酌收9元~",
    "hours": ">-"
  },
  {
    "file": "12191368132.md",
    "title": "*新竹橫山*合興車站，甜蜜浪漫的愛情火車站，情侶必遊景點",
    "hours": "null"
  },
  {
    "file": "12191827687.md",
    "title": "*新竹關西*仙草巷、ㄤ咕麵，關西排隊小吃介紹",
    "hours": "10:30-20:00(供餐時間平日至19:45，假日至19:30 )"
  },
  {
    "file": "12192670144.md",
    "title": "*東區美食*古早麵。招牌鴨肉超級無敵美味~~",
    "hours": "11:30~22:00，週一公休"
  },
  {
    "file": "12192709930.md",
    "title": "*台北西門*【日藥本舖博物館】免費參觀，日本昭和時期藥妝街懷舊場景",
    "hours": "14:00"
  },
  {
    "file": "12192814528.md",
    "title": "*基隆景點*碇內車站懷舊氛圍涮涮鍋，復興特快火鍋180元，古早味十足!!",
    "hours": "每周二至五11:30~14:00、17:30~21:00"
  },
  {
    "file": "12194357269.md",
    "title": "*台北美食*馥敦飯店南京館-嘉園廳，港式飲茶現點現做，吃到飽只要599元!!",
    "hours": "週一至週日 11:30~14:00、17:30~21:00"
  },
  {
    "file": "12196361035.md",
    "title": "*台北中山*好食多涮涮屋，點肉盤還免費送一盤肉，完全是肉食鬼的天堂呀~~",
    "hours": "null"
  },
  {
    "file": "12198747733.md",
    "title": "*忠孝新生站*豆腐村韓式豆腐煲，韓式小菜、豆腐霜淇淋吃到飽!!",
    "hours": "null"
  },
  {
    "file": "12199042474.md",
    "title": "*香港必吃美食*橋底辣蟹，蟹腳鮮味十足、肉質肥厚，超級無敵滿足~~",
    "hours": "週一~週日18:00~06:00"
  },
  {
    "file": "12201600130.md",
    "title": "*台北東區*醜比頭的秘密花園輕食咖啡，醜比頭飲料特調/三明治/pizza/義大利麵，醜比頭主題餐廳裝潢、餐點大推~",
    "hours": "null"
  },
  {
    "file": "12201683488.md",
    "title": "*台北美食*楓露廚房find the life kitchen，為了楓露星球而來~~果然新奇美味又有趣",
    "hours": "11:00-21:30"
  },
  {
    "file": "12201987280.md",
    "title": "*三峽美食*台灣磚窯雞，雞油拌飯無限享用，磚窯烤全雞美味100分",
    "hours": "週一-週日11:00 - 21:00"
  },
  {
    "file": "12202165861.md",
    "title": "*捷運國父紀念館*門司燒きカレー，聖女咖哩加起司生蛋焗烤~濃郁的口感帶著淡淡的咖哩香氣，咖哩起司控必看!!!!",
    "hours": "星期一~星期日 11:30~21:30"
  },
  {
    "file": "12202470244.md",
    "title": "*台北士林*台北花卉村，全年無休、免費入園，簡直是大型花市好好逛",
    "hours": "9:00~21:00"
  },
  {
    "file": "12202617046.md",
    "title": "*台北大同區*新丼日式丼飯專賣店，多達十幾種創意丼飯，「美式新丼」起司控必點!!起司牽絲讓人好心動~~",
    "hours": "週一 - 週五: 11:30 - 14:00 、 17:00 - 21:00"
  },
  {
    "file": "12202628140.md",
    "title": "*情人節DIY*製作情侶專屬音樂盒",
    "hours": "2個月10天"
  },
  {
    "file": "12202677241.md",
    "title": "*情人節DIY*製作情侶專屬音樂盒_程式碼",
    "hours": "null"
  },
  {
    "file": "12202680460.md",
    "title": "*淡水景點*紫藤咖啡園，整片盛開的紫色花鞭草美極了!",
    "hours": "早上8:00~晚上6:00"
  },
  {
    "file": "12203228653.md",
    "title": "*台北大安區*泰街頭，道地平價好吃的泰式烤雞腿飯，學生小資族們最愛!",
    "hours": "11:30–20:00"
  },
  {
    "file": "12203589934.md",
    "title": "*景觀餐廳*八卦夜未眠，陽明山約會景點/朋友聚餐，夜景盡收眼底!",
    "hours": "12:00"
  },
  {
    "file": "12203627497.md",
    "title": "*台北中山*寶煲食堂，煲仔飯均一價100元，還可選擇鍋巴的量~學生、上班族超愛!",
    "hours": "11:00-14:00、17:00-21:00(週日公休)"
  },
  {
    "file": "12203672548.md",
    "title": "*中和美食*祥鈺港式茶樓，平價港式飲茶，免收服務費及茶費!",
    "hours": "11:00–21:00"
  },
  {
    "file": "12204044770.md",
    "title": "*台北中山*金鍋盃小火鍋，比手掌大的20cm野生草蝦王，菜盤海鮮都超新鮮~",
    "hours": "11:30 - 14:30、17:30 - 01:00"
  },
  {
    "file": "12204192769.md",
    "title": "*台北美食*新丼日式丼飯專賣店，新口味「韓美新丼」香濃美式起司加韓式泡菜，蹦出新滋味!",
    "hours": "週一 - 週日: 11:30 - 21:00"
  },
  {
    "file": "12204507580.md",
    "title": "*台北東區*PORT of CALL taipei，來自日本品牌の複合式餐廳，北海道焗烤漢堡必點!!高CP大份量超飽足~",
    "hours": "11:30 - 22:00"
  },
  {
    "file": "12204542842.md",
    "title": "*板橋美食*街角二號音樂主題餐廳，義大利麵吃到飽，沙拉吧、鬆餅、石鍋拌飯無限供應!",
    "hours": "週一-週四:\\_11:30 - 23:00、週五-週六:\\_11:30 - 1:00、週日:\\_11:30 - 23:00"
  },
  {
    "file": "12204544045.md",
    "title": "*板橋美食*大醬日式火鍋百匯，火鍋吃到飽只要350元起，肉盤、火鍋料無限供應!(已歇業)",
    "hours": "11:00~凌晨 01:00\\_\\_"
  },
  {
    "file": "12204852859.md",
    "title": "*新北坪林*私房景點【貴妃池】，冰涼清澈的泉水、高聳的樹蔭遮蔽，超級消暑勝地!!",
    "hours": "null"
  },
  {
    "file": "12204962857.md",
    "title": "【忠孝新生站】特有種商行，魏德聖導演經營的咖啡廳~「老碗公甜醬油叉燒飯」豬油拌飯配上獨門醬汁叉燒肉，超級一級棒!!",
    "hours": "11:30 – 21:30 (週一公休)"
  },
  {
    "file": "12205038157.md",
    "title": "【微風南京】大八潮坊港式飲茶自助百匯，港點蒸籠推車、熟食海鮮類，吃到飽只要500元!!",
    "hours": "null"
  },
  {
    "file": "12205040188.md",
    "title": "*台北美食*龍都酒樓，超脆皮廣式片皮鴨，讓人回味無窮!家庭聚餐餐廳 港式點心",
    "hours": "平日中午11點半到下午2點，晚間5點到9點半假日中午11點到下午2點，晚間5點到9點半"
  },
  {
    "file": "12205362427.md",
    "title": "*台北信義區*燄Move Deluxe，隱藏在巷弄中獨特的義式料理，鳥籠庭院座位區超好拍!",
    "hours": "週一-週日11:00–22:00"
  },
  {
    "file": "12205362622.md",
    "title": "【台北展覽】NASA一場人類冒險，超過一千坪的展場，三百件出過太空任務的展件，觀後心得[國立臺灣科學教育館]",
    "hours": "null"
  },
  {
    "file": "12205501021.md",
    "title": "【金山咖啡廳】Q.B.Days / 靠北過日子，露營主題咖啡廳，吹風看海好悠閒~",
    "hours": "11:00-20:30(每週二、三公休)"
  },
  {
    "file": "12205608520.md",
    "title": "【瑞芳景點】象鼻岩(深澳岬角)，巨大的長鼻伸向大海投水，IG打卡景點!!",
    "hours": "null"
  },
  {
    "file": "12205652428.md",
    "title": "*台北主題餐廳*小熊學校快樂廚房，各種可愛的小熊餐點、小熊桌椅和小熊插畫牆，萌翻天啦~[民生社區]",
    "hours": "AM11:00 - PM21:00"
  },
  {
    "file": "12205911838.md",
    "title": "*燒烤吃到飽*久天日式燒烤(三重店)，高CP肉品、火鍋、生蠔吃到飽，不收服務費!",
    "hours": "週一-週五: 16:30 - 凌晨2:00、週六-週日: 11:30 - 凌晨2:00"
  },
  {
    "file": "12205923685.md",
    "title": "*桃園冰品*慢食堂，超大碗【豪華宇治金時】配料超豐富，充滿濃郁的抹茶香氣，抹茶控必吃!",
    "hours": "週二~日 12:00~18:00 (週一公休)"
  },
  {
    "file": "12206499607.md",
    "title": "【桃園新景點】多肉市集&阿貓龍貓車站咖啡廳，多肉植物3盆100元，好便宜呀~",
    "hours": "10:00～19:00"
  },
  {
    "file": "12206779864.md",
    "title": "*台北東區美食*江原慶白菜，微風廣場也能吃到八色豬五花囉~~忠孝復興站/韓式烤肉/東區烤肉",
    "hours": "週日~週三 11:00~21:30、週四~周六 11:00~22:00"
  },
  {
    "file": "12207156352.md",
    "title": "*桃園下午茶*Max&Corrine coffee鄉村雜貨風咖啡廳，滿滿迪士尼玩偶超夢幻！桃園咖啡廳/鬆餅/簡餐",
    "hours": "(星期三公休)"
  },
  {
    "file": "12207163234.md",
    "title": "*板橋早午餐*三隻小豬早午餐，平價豐盛又美味，格子脆三明治/蛋捲/漢堡/貝果/法式潛艇堡(捷運府中站)",
    "hours": "7:00 - 17:00"
  },
  {
    "file": "12208155379.md",
    "title": "*石門景點*伊莎貝拉海灘咖啡館，希臘地中海景觀，碧藍的池水加上海景，超級無敵美景!",
    "hours": "11:00~21:00(週一到週四)；11:00~03:00(週五、週六)；11:00~21:00(週日)"
  },
  {
    "file": "12208205662.md",
    "title": "*東區燒烤*櫻花羿日式炭火燒肉，超吸晴華麗沙發椅，哈根達斯、明治冰淇淋吃到飽，只要499元!",
    "hours": "平日，17:00 ~凌晨12:00週五，17:00～凌晨 1:00週六，12:00 ~凌晨1:00週日，12:00 ~凌晨12:00"
  },
  {
    "file": "12208388308.md",
    "title": "*中正紀念堂景點*萬支風車打造哆啦A夢地景，一同感受快樂童年!!(活動到2016/9/11止)",
    "hours": "2016年9月1日(週四)～9月11日(週日)"
  },
  {
    "file": "12208470850.md",
    "title": "*林口Outlet美食*温野菜涮涮鍋，各式肉類、新鮮蔬菜、甜點、飲料吃到飽![牛角集團]",
    "hours": "null"
  },
  {
    "file": "12208699222.md",
    "title": "*台中景觀餐廳*無為草堂人文茶館，置身市區中的世外桃源!",
    "hours": "早上10:30~晚上22:30(全年無休)"
  },
  {
    "file": "12208715110.md",
    "title": "*桃園大溪*小小兵彩繪牆，結合桃園當地熱門景點，彩繪出童趣純真的美麗牆面",
    "hours": "null"
  },
  {
    "file": "12208715311.md",
    "title": "*台中美食*Fun Tower日式可麗餅，堅持手工現點現做，可愛動物造型冰淇淋可麗餅",
    "hours": "週一: 14:00 - 21:00、週三-週日: 14:00 - 21:00"
  },
  {
    "file": "12208873957.md",
    "title": "*桃園景點*白圍牆地中海景觀咖啡，藍白希臘風格裝潢、草皮溜滑梯設施，週休二日好去處",
    "hours": "12:00-2:00(星期六12:00-3:00)"
  },
  {
    "file": "12209010178.md",
    "title": "*桃園景點*三民蝙蝠洞，天然彎月洞穴、洞前瀑布和清澈的溪流，十分壯觀!",
    "hours": "null"
  },
  {
    "file": "12209096401.md",
    "title": "*永和美食*鮮田屋精緻火鍋店，價格平價食材又新鮮，火鍋湯頭超讚~明治冰淇淋、飲料無限享用!(捷運永安市場站)",
    "hours": "週一-週日11:00-23:00"
  },
  {
    "file": "12209114680.md",
    "title": "*桃園景點*莫內的花園，綠蔭碧湖蓮花池畔，度過悠閒午後時光",
    "hours": "10：00-22：00 (18點後停止入園，周一公休)"
  },
  {
    "file": "12209279128.md",
    "title": "*平溪景點*望古瀑布，隱身在平溪裡的忘憂小秘境，感受山林間瀑布的清幽~",
    "hours": "null"
  },
  {
    "file": "12209332888.md",
    "title": "*燒烤吃到飽*肉倉韓式烤肉，韓式烤肉+韓式小菜+哈根達斯吃到飽(捷運西門站)",
    "hours": "週一-週日:11:00~02:00"
  },
  {
    "file": "12209653876.md",
    "title": "*新北市免費景點*手信坊創意和菓子文化館，不用出國也能感受日本風情，免費喝研磨咖啡、奉茶，各種試吃超大方!",
    "hours": "08：30 – 19：00"
  },
  {
    "file": "12209910709.md",
    "title": "*板橋火鍋*樂聚鍋物，高CP值的六種海鮮鍋超澎湃~臉書打卡還送日式麻糬唷!(捷運亞東醫院站)",
    "hours": "11:30~22:30"
  },
  {
    "file": "12210549349.md",
    "title": "*宜蘭景點*四圍堡車站重新改裝，笑笑羊親子主題餐廳，戶外小火車區小孩最愛~(已歇業)",
    "hours": "早上10:00~晚上21:00內有免費停車場(免門票)"
  },
  {
    "file": "12210573619.md",
    "title": "*台北中山美食*何首烏皇帝雞，麻油麵線可無限續，暖冬最佳首選!(捷運松江南京站)",
    "hours": "null"
  },
  {
    "file": "12210640042.md",
    "title": "*台北火鍋吃到飽*味之町涮涮鍋，帝王蟹超澎湃吃到飽，讓你一次吃個夠！",
    "hours": ">-"
  },
  {
    "file": "12210838447.md",
    "title": "*宜蘭景點*多肉王國DIY，多肉盆栽親手DIY，盆栽裝飾物任你挑，療癒又有趣!",
    "hours": "9:00-17:00 (星期四公休)"
  },
  {
    "file": "12211069915.md",
    "title": "*桃園景觀餐廳*尼莫先生海洋景觀主題餐廳 ，全台唯一海洋生物造景餐廳，不用出國就能走進海底世界，還有\"尼莫\"陪你用餐~",
    "hours": ">-"
  },
  {
    "file": "12211074433.md",
    "title": "*宜蘭壯圍美食*海世界複合式碳烤，超澎湃海鮮自助燒烤，牡蠣新鮮又大顆!!",
    "hours": "週一～週五 16：30～23：00（週三公休）                  週六、周日 12：00～23：00"
  },
  {
    "file": "12211127140.md",
    "title": "*宜蘭景點*幾米星空列車&幸福轉運站，老舊車站變身夢幻「幾米世界」，溜滑梯/盪鞦韆/沙坑/球池，小朋友為之瘋狂",
    "hours": "周二~五10:00~18:00、周末及例假日09:00~19:00每逢周一休館(如遇國定例假日照常開放)室內展覽區門票150元，室外免費參觀"
  },
  {
    "file": "12211429141.md",
    "title": "*台北烘焙*自己做烘焙聚樂部No.3 店，自己動手做甜點，滿足小小成就感~",
    "hours": "9:30 - 21:00全省訂位專線：(04)2462-8217（撥打時間 9:30~19:30）粉絲團：請點這"
  },
  {
    "file": "12211686292.md",
    "title": "*宜蘭景點*清水地熱公園，體驗用泉水煮溫泉蛋、玉米，還可至泡湯池暖暖腳，暖心又暖胃！",
    "hours": "09:00-17:00，全年無休（除農曆除夕休園一日）"
  },
  {
    "file": "12211688131.md",
    "title": "*台北景點*南港中信大樓「生聲不息」LED互動牆，360度呈現台灣之美!",
    "hours": "10:00-22:00電話：02-3327-1688"
  },
  {
    "file": "12211941988.md",
    "title": "*台北美食*本家台灣咖哩，台式肉燥&日式咖哩蹦出完美新滋味，一吃就愛上!!",
    "hours": "11:00 - 凌晨2:00(每日休息時間為15:30至16:30)"
  },
  {
    "file": "12212191720.md",
    "title": "*宜蘭羅東民宿推薦*溫馨小棧夢想館，套房內有電動按摩椅/乾濕分離浴缸，還有附早餐!",
    "hours": ">-"
  },
  {
    "file": "12212196619.md",
    "title": "*台北東區*新沙洞韓國烤肉，專人烤肉給你吃，道地韓式小菜無限續~(國父紀念館站)",
    "hours": "17:30-23:00 (周一公休)"
  },
  {
    "file": "12212224591.md",
    "title": "*三重美食*今大魯肉飯，超親民價位的魯肉飯及香菇排骨湯，學生、小資族最愛!",
    "hours": "06:00~21:00（全年無休）"
  },
  {
    "file": "12212410045.md",
    "title": "*宜蘭美食*「熊飽鍋物」主題式涮涮鍋店，熊熊主題親子餐廳萌萌噠!",
    "hours": "周一~周五 11:00–14:00, 17:00–22:00／周六、日 11:00–22:00"
  },
  {
    "file": "12212747860.md",
    "title": "*桃園景點*異國仙境的八德落羽松森林，充滿蕭瑟之美!",
    "hours": "每年年底至隔年年初"
  },
  {
    "file": "12212881705.md",
    "title": "*桃園咖啡館*銀河鐵道咖啡館，浪漫LOVE造景，看高鐵、賞夜景的景觀餐廳!",
    "hours": "14:00~01:00"
  },
  {
    "file": "12212917852.md",
    "title": "*台南美食*排隊燒物，全國首家迴轉燒物店，超大牡蠣、三點蟹吃到飽，調酒無限暢飲!(已歇業)",
    "hours": ">-"
  },
  {
    "file": "12213121687.md",
    "title": "*台南美食*台南東區焦糖煉乳包心粉圓，比臉還大的菠蘿麵包冰，配料超豐富!!",
    "hours": "週一～週日12：00-22：30"
  },
  {
    "file": "12213123751.md",
    "title": "*台南美食*王氏魚皮，肉汁魚皮完全不帶刺，超鹹香滑嫩又鮮甜，最道地的台南味!",
    "hours": "04:00-14:00(平日)、04:00-14:30(假日)(農曆過年期間休假)"
  },
  {
    "file": "12213327118.md",
    "title": "*台南早餐*少爺手作蛋餅專賣，大份量平價蛋餅，吃得到滿滿薯泥的綜合蛋餅!",
    "hours": "6:00-12:00 （週一公休）"
  },
  {
    "file": "12213503005.md",
    "title": "*大直捷運美食*鍋饕精緻涮涮鍋，重量級TORO黑豚肉鍋，吃完能量大滿足!!",
    "hours": "週一~週五11:00~14:00、17:00~22:00，週六、日及國定假日：11:00~22:00(全天營業)"
  },
  {
    "file": "12213527974.md",
    "title": "*台北景點*內湖金面山親山步道，將台北盆地盡收眼底。",
    "hours": "約1小時40分鐘"
  },
  {
    "file": "12213650668.md",
    "title": "*宜蘭頭城*老街懷舊食堂，椒麻雞腿飯/當歸湯/天霸王滷肉飯，滿滿的濃厚古早味!",
    "hours": "10:00 - 20:00鄰近交通：頭城火車站 (約300公尺)"
  },
  {
    "file": "12213673300.md",
    "title": "*台北合菜*ㄚ田廚房，精緻8000元年菜組合，澎湃又美味!!",
    "hours": "11:00-14:00；17:00-21:00"
  },
  {
    "file": "12213691177.md",
    "title": "*台南景點*四草綠色隧道，搭乘竹筏遊「台灣版亞馬遜河」，絕美綠色水上隧道!",
    "hours": "早上8:30至下午5:00"
  },
  {
    "file": "12213691540.md",
    "title": "*台北東區*GREEN LIGHT 韓式炸雞吃到飽，讓你一次吃個夠!(近捷運忠孝敦化站)",
    "hours": "週一至週日 17:00~22:00地址： 臺北市大安區敦化南路1段160巷18號(捷運忠孝敦化站9號出口步行約5分鐘)\\_電話： (02)8771-0860營業時間：週一至週五 17:00~22:30 週六至週日 12:00~14:30 17:00~22:30消費方式: 吃到飽499+10% (不含酒類)"
  },
  {
    "file": "12213714016.md",
    "title": "*台南美食*隱田山房，日本禪風造景，精緻火鍋份量十足!",
    "hours": "11:00 ~ 21:00 (週一公休)"
  },
  {
    "file": "12213742684.md",
    "title": "*台北吃到飽*豐FOOD海陸百匯，超過200道菜色無限供應，必吃椒鹽天使蝦!",
    "hours": "11:30"
  },
  {
    "file": "12213866407.md",
    "title": "*台北景點*彩虹河濱公園，向日葵花海陸續盛開，免費拍到爽!",
    "hours": "null"
  },
  {
    "file": "12213869236.md",
    "title": "*台北美食*上海邵師傅湯包，爆漿脆皮湯包餡料飽滿多汁[近六張犁捷運站]",
    "hours": "11：00-21：00"
  },
  {
    "file": "12213869413.md",
    "title": "*台南景點*小熊維尼彩繪村，不同風貌的小熊維尼，讓你一次拍個夠!",
    "hours": "null"
  },
  {
    "file": "12214051354.md",
    "title": "【台南 / Tainan 景點全攻略】13個台南旅遊景點、7家台南美食懶人包整理，一日遊、二日遊行程推薦(2018/11月更新)",
    "hours": "null"
  },
  {
    "file": "12214184035.md",
    "title": "*宅配美食*珍苑牛肉麵、精肉燥，帶筋牛腱肉軟嫩紮實，大份量麵條順口Q彈，只需加熱即可輕鬆上桌!(紅燒/清燉口味)",
    "hours": "null"
  },
  {
    "file": "12214211953.md",
    "title": "*台北烘焙*自己做烘焙聚樂部No.3 店，自己的生日蛋糕自己做，當日壽星免費唷(二訪，內含完整新菜單)",
    "hours": "9:30 - 21:00全省訂位專線：(04)2462-8217（撥打時間 9:30~19:30）粉絲團：請點這"
  },
  {
    "file": "12214221301.md",
    "title": "*台南景點*虱目魚主題館，以「海洋圖書館」為主題，與虱目魚的知識之旅，免門票景點!",
    "hours": "9:00-17:00"
  },
  {
    "file": "12214429172.md",
    "title": "*台北美食*赤から鍋Akakara中山旗艦店，名古屋版的麻辣鍋，赤味噌鍋共有10種辣度可選擇！(捷運淡水線中山站)",
    "hours": "週一～週五17:00-24:00 週六～週日11:30-24:00"
  },
  {
    "file": "12214512650.md",
    "title": "*七張美食*六堆伙房客家麵食館，各式特色創意客家菜，平價又美味!(捷運七張站)",
    "hours": "11:30~21:00※酌收10%服務費"
  },
  {
    "file": "12214598792.md",
    "title": "*台北士林包膜*怪獸包膜＆維修(士林店)，客製化包膜、手機維修服務，打造個人專屬包膜!",
    "hours": "14:00–23:30官網：請點這粉絲團：請點這"
  },
  {
    "file": "12214678244.md",
    "title": "*台北士林*故宮晶華粵菜港點吃到飽，共有50多種菜色任你點!",
    "hours": "11:30–14:30； 17:30–21:00"
  },
  {
    "file": "12214746968.md",
    "title": "*台北美食*牛肉麵．雞湯，超飽足的紅燒半筋半肉麵，從晚餐時段開至凌晨4點，滿足夜貓族的胃!",
    "hours": "18:00–04:00電話：(02)2778-7776"
  },
  {
    "file": "12214765550.md",
    "title": "*台北火鍋*小當家海鮮鍋物(民生分店)，波士頓野生龍蝦雙人套餐，澎拜又新鮮的海鮮盤/雙人蔬菜桶/肉盤，吃得超過癮!",
    "hours": ">-"
  },
  {
    "file": "12214805411.md",
    "title": "*中和美食*波思若創意料理，平價大份量的義式料理，11吋手工披薩必點~(近永安市場捷運站)",
    "hours": "null"
  },
  {
    "file": "12214865279.md",
    "title": "*台北景點*銀河洞越嶺步道，涓絲般瀑布傾瀉而下，簡直別有洞天!",
    "hours": "null"
  },
  {
    "file": "12215198792.md",
    "title": "*甜點推薦*夢卡朵蛋糕，神戶牛奶捲鬆軟綿密又紮實，甜點迷最愛!",
    "hours": "null"
  },
  {
    "file": "12215200985.md",
    "title": "*台北港式飲茶*易牙居餐廳-公館店，現點現做、用料紮實的港式點心!(台大公館商圈)",
    "hours": "null"
  },
  {
    "file": "12215216780.md",
    "title": "*台北火鍋*藍象廷泰式火鍋-師大店，以獨特泰國香料熬煮湯底，酸甜清爽好滋味!",
    "hours": "上午11:00~22:00 (最後點餐時間21:00)"
  },
  {
    "file": "12215218634.md",
    "title": "*台北拉麵*九湯屋日式拉麵，99元就能吃到東京豚骨拉麵!(新北投捷運站)",
    "hours": "null"
  },
  {
    "file": "12215333222.md",
    "title": "*台北美食*濟南牛肉麵，牛肉牛筋超大塊，湯頭順口不油膩!(捷運忠孝新生站)",
    "hours": "週一 ~ 週五 11:00~20:00、週六 11:00~16:00(周日公休)"
  },
  {
    "file": "12215336210.md",
    "title": "*花蓮美食*御楓壽司屋，綜合握壽司CP值超高!(鄰近壽豐火車站前)",
    "hours": "11:00-14:00，17:00-20:00（週四公休）"
  },
  {
    "file": "12215601200.md",
    "title": "*宅配美食*貝士多甜點魔法Cookies&Gifts，重乳酪口感濃郁紮實，搭配酥脆的餅乾底超香濃❤",
    "hours": "null"
  },
  {
    "file": "12215606285.md",
    "title": "*新北板橋美食*極鮮火鍋，自助火鍋吃到飽!(更新搬遷後地址)",
    "hours": "平日11:00 ~ 23:00；假日10:30 ~ 23:00"
  },
  {
    "file": "12215836445.md",
    "title": "*台北中正*雙月食品社，麻油雞麵線料多味美，補氣養身! (捷運善導寺2號出口)",
    "hours": "週一~週六 11:00-15:00、16:00-20:00"
  },
  {
    "file": "12216005504.md",
    "title": "*台北萬華*玖佰號火鍋/烤豬五花專門店，烤豬五花盤每份只要200元，高CP值燒烤推薦!",
    "hours": "上午11:30-晚上8:30"
  },
  {
    "file": "12216040106.md",
    "title": "*台東美食*原生應用植物園，植物養生汆燙鍋吃到飽$439元，今天吃素啦~~",
    "hours": "週一至週日 上午8:30~晚上20:00"
  },
  {
    "file": "12216041258.md",
    "title": "*宜蘭新景點*綠舞觀光飯店&綠舞日式主題園區，日式庭園設計超好拍~",
    "hours": "上午9:00~下午5:00"
  },
  {
    "file": "12216153389.md",
    "title": "*台東民宿推薦*2奶不在家民宿，房間乾淨舒適，附停車位、早餐，鄰近鐵花村/台東觀光夜市!",
    "hours": "09:00"
  },
  {
    "file": "12216172910.md",
    "title": "*宜蘭景觀餐廳*海洋20M海景咖啡館，藍白地中海裝潢，遠眺遼闊海景~",
    "hours": "週一~週日11：00∼21：00"
  },
  {
    "file": "12216233690.md",
    "title": "*桃園美食*Poffee Canteen，大份量黑咖哩牛肉飯，味道濃郁、用料豐富!(提供wifi、充電插座)",
    "hours": "11:00-20:00(週四公休)"
  },
  {
    "file": "12216289445.md",
    "title": "*宜蘭甜品*原來豆花，黑糖綿綿冰+豆花，這樣吃也幸福!",
    "hours": "10:00 – 22:00 (週三公休)"
  },
  {
    "file": "12216430856.md",
    "title": "【宅配美食】鳳儀鳳梨酥，吃的到鳳梨果肉的纖維質，年節送禮推薦!",
    "hours": "null"
  },
  {
    "file": "12216434132.md",
    "title": "【宅配美食】貝士多甜點魔法Cookies&Gifts，夏威夷果牛軋糖，超大顆蔓越莓果乾，Q軟不黏牙!",
    "hours": "null"
  },
  {
    "file": "12216584675.md",
    "title": "*台北大安*O''Steak Taipei歐牛排法餐廳，煙燻鮭魚砍頭小吃/奶油蘑菇白酒燴蝸牛/法式鴨胸，附完整菜單(捷運東門站)",
    "hours": "週一-週日11:30 – 14:00；18:00 – 22:00"
  },
  {
    "file": "12216627215.md",
    "title": "*宜蘭小吃美食*廣興做粿，碗粿超級綿密好入口，平價又樸實的古早味!",
    "hours": "9:00~1800公休日期：每週一"
  },
  {
    "file": "12216629534.md",
    "title": "*台北下午茶*東京紅茶＆餐廳KANO，自由熱紅茶無限續杯暢飲(近捷運忠孝新生站)",
    "hours": "11:30–22:00 (最後點餐21:00)"
  },
  {
    "file": "12216658091.md",
    "title": "*苗栗景點*橄欖樹咖啡民宿，童話般的紫屋咖啡廳，瀰漫療癒的氛圍~",
    "hours": "週一-週五09:00-20:00、週六09:00-21:00、週日09:00-20:00"
  },
  {
    "file": "12216882764.md",
    "title": "*台北中山*時代1931居酒屋，薄切花枝/稻草燒松阪豬/炸雞佐照燒蛋黃醬/明太子披薩/台灣拌麵(近中山捷運站4號出口)",
    "hours": "11:30 - 14:00 、 17:00 - 23:00"
  },
  {
    "file": "12216910463.md",
    "title": "*宜蘭頭城*龍記牛肉麵，牛肉、牛筋軟嫩紮實，超有飽足感!",
    "hours": "上午11：00~14：00賣完為止 (週日公休)"
  },
  {
    "file": "12216914843.md",
    "title": "*台北東區*叁和院台灣風格飲食(忠孝旗艦店)，各式時尚創意台菜，蒸籠造型點心超Q!",
    "hours": "週一~週四、週日11:30~23:45；週五~週六11:30~01:00"
  },
  {
    "file": "12216935858.md",
    "title": "*宜蘭員山*金車蘭花園，北台灣最大型的專業蘭園，雨天備案景點!(全年無休，免費入園)",
    "hours": "08:00-17:00"
  },
  {
    "file": "12216951575.md",
    "title": "*苗栗三義*居鳩堂庭園茶屋，品嚐三義客家米食，筷子用完可帶走喔!",
    "hours": "11:00-15:30 (週二公休)"
  },
  {
    "file": "12216993296.md",
    "title": "*宜蘭景點*龍座咖啡、輕食、下午茶，絕美的雙心石滬景觀餐廳，一眼望去景色遼闊!",
    "hours": "AM11:00～PM21:00 (週二公休)"
  },
  {
    "file": "12216996395.md",
    "title": "【好康推薦】繳電話費還可以拿贈品？歡樂打58666-專屬中華電信行動用戶回饋送氣泡按摩足浴機!",
    "hours": "null"
  },
  {
    "file": "12217011860.md",
    "title": "*苗栗美食*仙山仙草，仙草地瓜芋圓紅豆牛奶冰(每人有低消限制!)",
    "hours": "上午8:00~下午5:30"
  },
  {
    "file": "12217026275.md",
    "title": "【宅配團購】御記烤鴨xUJ風味館，頂級魯味、風味小菜、醃漬小菜、獨門沾醬，越吃越ㄙㄨㄚˋ嘴!",
    "hours": "null"
  },
  {
    "file": "12217093155.md",
    "title": "【苗栗景點】勝興愛情故事館，浪漫LOVE場景，情侶約會拍照聖地!",
    "hours": "週一至週五AM9:00~PM18:00；週六日AM8:30~PM18:00"
  },
  {
    "file": "12217234116.md",
    "title": "*生活用品*兩生花手工皂代購/網購/團購",
    "hours": "null"
  },
  {
    "file": "12217254894.md",
    "title": "【最新包款推薦】I AM BAGS，FLASH FLORA 花神系列後背包，旅行必備包款!",
    "hours": "null"
  },
  {
    "file": "12217300842.md",
    "title": "【台北燒烤吃到飽】火之舞蓁品燒 和牛放題，主打頂級美澳和牛、東石生蠔超大顆又肥美!(近捷運忠孝敦化3號出口)",
    "hours": "週一至週五 下午5:00-晚上12:00"
  },
  {
    "file": "12217360209.md",
    "title": "【台北松江南京】匠壽司，16道頂級無菜單日式料理，熊本生蠔肥美又新鮮!",
    "hours": "12:00~14:30 (14:00最後點餐)，17:30~21:30 (21:00最後點餐)"
  },
  {
    "file": "12217510860.md",
    "title": "【台北咖啡廳】黑鳶 花疫室二店，店內滿滿乾燥花超好拍!(捷運科技大樓站)",
    "hours": "11：00～21：00"
  },
  {
    "file": "12217544691.md",
    "title": "【板橋冰品】震湶雪花冰，夏季限定-小丸子涼西瓜雪花冰，煉乳可無限續加!",
    "hours": "13:30 - 22:00(周一公休)"
  },
  {
    "file": "12217598829.md",
    "title": "【林口三井outlet】韓食拌樂 bibim，石鍋牛肉拌飯起司超多，韓式小菜免費無限續!",
    "hours": "週一~週五 11:00~21:30、週六~週日\\_10:30~22:00"
  },
  {
    "file": "12217694646.md",
    "title": "【新北市景點】林口水牛坑，台灣版的美國大峽谷，吹風看海好放鬆~",
    "hours": "null"
  },
  {
    "file": "12217744974.md",
    "title": "【宜蘭住宿】宜蘭傳藝老爺行旅，住宿贈鑲澄金工純銀對戒手作體驗，打造情侶專屬對戒~",
    "hours": "AM 10:00 – PM 14:00)"
  },
  {
    "file": "12217778310.md",
    "title": "2021宜蘭景點一日遊、二日遊旅遊景點推薦、宜蘭美食懶人包整理",
    "hours": "周二~五10:00~18:00、周末及例假日09:00~19:00每逢周一休館(如遇國定例假日照常開放)室內展覽區門票150元，室外免費參觀"
  },
  {
    "file": "12217857066.md",
    "title": "【冰品推薦】通化街九份芋圓，刀削冰任選4種料，必點超放大版芋圓、地瓜圓!",
    "hours": "18:00~1:00(每週二公休)"
  },
  {
    "file": "12217858536.md",
    "title": "【宜蘭羅東冰品】小島日和（已歇業），季節限定芒果冰，整面浪漫花牆超好拍！",
    "hours": "12:00-20:30 (每週一休)"
  },
  {
    "file": "12217912731.md",
    "title": "【台北下午茶】Museum Coffee 50年代博物館咖啡，必點法式鹹派! (國父紀念館站)",
    "hours": "8:00~18:00 (每週一公休)"
  },
  {
    "file": "12217965123.md",
    "title": "【台北松山】饗樂shabu精緻鍋品，限量供應花雕雞火鍋，現點現爆香!",
    "hours": "週一~週五晚上17:30~3:00；六日11:00~15:30、17:00~03:00"
  },
  {
    "file": "12218016438.md",
    "title": "【宜蘭景觀餐廳】A.maze兔子迷宮景觀咖啡餐廳，絕美的彩虹天空步道，180度眺望蘭陽平原!",
    "hours": "週日-週四11:00~23:00、週五-週六11:00~00:00"
  },
  {
    "file": "12218068200.md",
    "title": "【台北雞湯餐廳】雞窩餐廳，砂鍋土雞湯超濃郁，各式川菜平價又好吃!(2022更新搬遷新地址)",
    "hours": "週一～週日：11:30–14:00；17:30–21:00(週三公休)"
  },
  {
    "file": "12218141679.md",
    "title": "【台北大安】Red Circle HAIR SALON & BAR，結合餐飲、酒吧與美髮的時尚空間!",
    "hours": "早上11:00~晚上8:00"
  },
  {
    "file": "12218354760.md",
    "title": "【宜蘭蘇澳景點】南方澳觀景台，360度觀海平台，真是美炸了!",
    "hours": "null"
  },
  {
    "file": "12218357571.md",
    "title": "【新北市瑞芳景點】無耳茶壺山登山步道，絕美步道景色，還能遠眺陰陽海!",
    "hours": "null"
  },
  {
    "file": "12218445846.md",
    "title": "【宜蘭礁溪景點】猴洞坑瀑布，俯瞰蘭陽地區美景，挑戰性0%",
    "hours": "null"
  },
  {
    "file": "12218517063.md",
    "title": "【新莊美髮】歐紋造型工作室，變身型男的「低調挑染」，營造帥氣獨特感!",
    "hours": "13:00~23:00"
  },
  {
    "file": "12218529246.md",
    "title": "【新北市北海岸景點】石門洞+神秘海岸，海景第一排的療癒景色!!",
    "hours": "null"
  },
  {
    "file": "12218679432.md",
    "title": "【台北東區】甲泰船麵，泰國街頭小吃，多拿蝦餅HEN厲害！",
    "hours": "11:30~14:30、17:30~21:00"
  },
  {
    "file": "12218719965.md",
    "title": "【新莊美食】樂崎火鍋，雙人招牌龍蝦套餐，超澎拜龍蝦拼盤!",
    "hours": "11:00~23:00"
  },
  {
    "file": "12218881626.md",
    "title": "【台北中山】中村足體SPA會館，深層煥膚美白修復保濕，肌膚重現水嫩明亮!",
    "hours": "早上09:00-凌晨01:00"
  },
  {
    "file": "12219043518.md",
    "title": "【台北火鍋】紅蟹將軍-帝王蟹鍋物吃到飽，海鮮拼盤/霜降牛肉/烤秋刀魚/哈根達斯/飲料無限量供應",
    "hours": "11:30~14:30；17:30~22:00"
  },
  {
    "file": "12219070230.md",
    "title": "【台北早午餐】am Daily，超美味「費城牛肉起司三明治」鮮甜肉汁超噴香!(捷運忠孝復興站)",
    "hours": "週一~週五：11:00~23:00；週六日：10:00~23:00"
  },
  {
    "file": "12219166476.md",
    "title": "【電影/影集】兩隻小豬電影影評懶人包",
    "hours": "null"
  },
  {
    "file": "12219196674.md",
    "title": "【懶人減肥法】只需2個步驟輕鬆減健康瘦!不靠減肥菜單的超神奇瘦身方法即將面世!!!",
    "hours": "null"
  },
  {
    "file": "12219253179.md",
    "title": "【台北中山】Coco Brother 椰子冰淇淋，綜合堅果養生椰皇燉奶，吃得到滿滿椰子肉!",
    "hours": "11:00"
  },
  {
    "file": "12219263757.md",
    "title": "【台北內湖美食】洋夫人壽喜燒鍋物牛排，集火鍋料盤免費送牛排(近捷運葫洲站)",
    "hours": "中午12:00至15:00；下午16:30至22:00"
  },
  {
    "file": "12219346491.md",
    "title": "【桃園美食】伍角懷舊餐館，各式家常菜有媽媽的味道，豬油拌飯免費續!",
    "hours": "11:30-14:30、17:00-23:30（每週二公休）"
  },
  {
    "file": "12219348228.md",
    "title": "【台北下午茶】Matcha One永康店，「抹茶蛋糕捲」甜而不膩! (近捷運東門站)",
    "hours": "12:30"
  },
  {
    "file": "12219480108.md",
    "title": "【台北中山】東京田町 鳥心，日本銀座串燒名店登台，必點親子丼、炙燒海膽箱!",
    "hours": "18:00-23:30"
  },
  {
    "file": "12219763278.md",
    "title": "【宜蘭住宿】山口溫泉飯店，露天超大檜木SPA池，天冷泡湯去!(鄰近礁溪火車站)",
    "hours": "平日16:00~23:00 假日16:00~24:00\\_"
  },
  {
    "file": "12219777594.md",
    "title": "【懶人減肥法】第一個月成功瘦下2.9公斤!",
    "hours": "null"
  },
  {
    "file": "12219964512.md",
    "title": "【台北吃到飽】台電勵進餐廳-酸菜白肉鍋吃到飽，天冷吃鍋去!(近捷運古亭站)",
    "hours": "11:00-13:00，17:00-20:00 （每週日公休）"
  },
  {
    "file": "12220054077.md",
    "title": "【台北火鍋】赤から鍋Akakara，名古屋赤味噌鍋，起司玉子燒必點!(信義ATT店)",
    "hours": "週一~週日11:00–22:00"
  },
  {
    "file": "12220181664.md",
    "title": "【台北內湖景點】龍船岩步道，拍出超驚險懸崖照，膽小者勿近!",
    "hours": "null"
  },
  {
    "file": "12220183353.md",
    "title": "【台中IG熱門打卡景點】每個景點怎麼拍都美，Instagram打卡必去！(台中景點推薦)",
    "hours": "13:00~21:00，無公休日"
  },
  {
    "file": "12220612710.md",
    "title": "【桃園中壢】塩Way義式餐坊，超繽紛黃藍貨櫃小屋，燉飯/義大利麵/小火鍋/鐵釜鍋巴飯!",
    "hours": "週一~週日11:00-21:00\\_"
  },
  {
    "file": "12220836435.md",
    "title": "【桃園景點】小烏來天空步道，進階2.0版「天空繩橋」，驚險又刺激!",
    "hours": "08:00-17:00(週二休園)"
  },
  {
    "file": "12220941999.md",
    "title": "【新北樹林】澡糖甜點工作室，繽紛彩色球池 x 棉花糖浴缸，還有超好吃手作甜點!",
    "hours": "每日14:00~21:00 (每週四公休)"
  },
  {
    "file": "12220957641.md",
    "title": "【網購零食】BK Shop「首爾‧旅行中」韓國零食箱，韓國熱銷零食都在這!",
    "hours": "null"
  },
  {
    "file": "12221169843.md",
    "title": "【新北市新店美食】羴大王養生自助式吃到飽羊肉爐499元，帶皮羊肉新鮮無羊騷味，湯頭溫潤順口!",
    "hours": "中午12：00～晚上11：00 (週三公休)"
  },
  {
    "file": "12221435973.md",
    "title": "【捷運龍山寺站美食】艋舺夜市小吃推薦，21間必吃小吃~2023.01月更新!(萬華美食/廣州街/華西街夜市美食)",
    "hours": "18:30-23:00"
  },
  {
    "file": "12221449272.md",
    "title": "【２０１８花蓮、台東行程規劃】四天三夜怎麼玩？花東必玩景點推薦＋美食＋住宿！（上）",
    "hours": "11:00~14:00 / 16:00~21:00\\_"
  },
  {
    "file": "12221475780.md",
    "title": "【花蓮美食】Ian's table迷路私宅料理，創意無菜單摩洛哥料理！",
    "hours": "週一~週日11：30 - 14：00，17：30 - 21：00（預約制）"
  },
  {
    "file": "12221475849.md",
    "title": "【２０１８花蓮、台東行程規劃】四天三夜怎麼玩？花東必玩景點推薦＋美食＋住宿！（下）",
    "hours": "週一~週日10:30~19:00"
  },
  {
    "file": "12221510544.md",
    "title": "【台北美食】Miacucina天母店，義式蔬食料理，推薦奶油香蒜野菇麵！（附完整版菜單）",
    "hours": "週一~週五11:00~22:00，週六日09:00–22:00"
  },
  {
    "file": "12221549043.md",
    "title": "【台北中山區髮廊推薦】FIN Hair Salon，2018年就是要來個冷棕色！（捷運中山站４號出口）",
    "hours": "null"
  },
  {
    "file": "12221549949.md",
    "title": "【台北大安】鑫華茶餐廳，平價道地的港式點心，蝦米煎腸粉、干炒牛肉河必點!",
    "hours": "11：00 - 20：30"
  },
  {
    "file": "12221591628.md",
    "title": "【台北大安下午茶】Cross Café克勞斯咖啡店，抹茶鍵盤鬆餅~鬆軟又美味！",
    "hours": "週一~週日10:00~22:00"
  },
  {
    "file": "12221592009.md",
    "title": "【台北大安】豬跳舞Dancing Pig小餐館，【主廚特製肉慾拼盤】豐盛又美味!(附完整菜單)捷運國父紀念館站",
    "hours": "11:30~14:30/17:30~22:00"
  },
  {
    "file": "12221619996.md",
    "title": "【新北市新店區】永哥港式點心坊，各式港點平價又美味，聚餐的好地方！(捷運大坪林站3號出口)",
    "hours": "週二-週日 11:00-14:00、17:00-21:00 (週一公休)"
  },
  {
    "file": "12221646258.md",
    "title": "【台北親山步道】景美仙跡岩步道，難度不高~還可賞台北市遼闊景色!",
    "hours": "null"
  },
  {
    "file": "12221657781.md",
    "title": "【林口景點】藍色公路海景咖啡館，海景第一排的療癒景色！",
    "hours": "週一～週五: 11:00 – 21:30 週六～週日: 11:00 – 22:00"
  },
  {
    "file": "12221669775.md",
    "title": "【淡水美食】勝匠日式豬排•丼飯•唐揚炸雞，咖哩醬和飯可以免費續～平價又美味！",
    "hours": "週一～週日11:00～晚上12:00（週二公休）"
  },
  {
    "file": "12221693832.md",
    "title": "【瑞芳景點】鼻頭角稜谷步道+鼻頭國小，綿延不絕的「台版萬里長城」，欣賞遼闊海景和山景",
    "hours": "null"
  },
  {
    "file": "12221738499.md",
    "title": "【台灣登山步道總整理】一起享受蔚藍海景和美景吧！(2019/6/29更新)",
    "hours": "null"
  },
  {
    "file": "12221764878.md",
    "title": "【征服台灣小百岳全紀錄】第二座-9KM南港山縱走親山步道，九五峰+南港山+拇指山+四獸山",
    "hours": "null"
  },
  {
    "file": "12221780157.md",
    "title": "【台北公館早午餐】MinouMinou Cafe，超療癒的貓咪咖啡廳！（附完整菜單）",
    "hours": "週二～週六11:00 - 21:00 、週日11:00-20:00 (週一公休)"
  },
  {
    "file": "12221812869.md",
    "title": "【出國旅遊網路】飛買家wifi分享器，全球吃到飽!!隨時隨地上網不求人!(現在輸入優惠代碼再享折扣！)",
    "hours": "null"
  },
  {
    "file": "12221814513.md",
    "title": "【宅配美食】珍苑牛肉麵，PRIME BEEF牛腱肉超軟嫩，常溫保存即可！Taiwan Beef Noodle",
    "hours": "null"
  },
  {
    "file": "12221862207.md",
    "title": "【淡水美食】7盎司牛排-淡水店，12盎司厚切牛排飽足又過癮! (已歇業)",
    "hours": "11:00 - 15:00 、 17:00 - 22:00"
  },
  {
    "file": "12221863206.md",
    "title": "【出國旅行包款推薦】Numinous Packs 英國獅王旅行防盜背包/防盜真皮護照夾，具備頂級防盜機能!",
    "hours": "null"
  },
  {
    "file": "12221881710.md",
    "title": "【征服台灣小百岳全紀錄】第三座-龍船岩無階梯連續上坡，手腳並用上攀拉繩挑戰體力與肌耐力極限!",
    "hours": "null"
  },
  {
    "file": "12221908377.md",
    "title": "【台北免費景點】林安泰古厝，四合院閩式建築古色古香，參觀拍照免門票!",
    "hours": "每星期二至星期日 上午9:00~下午5:00（星期一休館）"
  },
  {
    "file": "12221911575.md",
    "title": "【陽明山竹子湖】午後陽光繡球花田(2018/5/12最新花況)，憑門票可兌換盆栽!",
    "hours": "null"
  },
  {
    "file": "12221916594.md",
    "title": "【台北火鍋吃到飽】神旺大飯店-澄江鍋物Shabu，火鍋種類不多但食材新鮮，至2018/6/30成人用餐即享85折❗️",
    "hours": "午餐 11:30am - 02:00pm；晚餐 05:30pm - 09:00pm"
  },
  {
    "file": "12221925639.md",
    "title": "【陽明山景點】大屯瀑布，享受山林間的清幽，夏天消暑好去處！",
    "hours": "null"
  },
  {
    "file": "12221982471.md",
    "title": "【捷運新埔站】六堆伙房新埔店，各式客家創意料理餐點，必點福菜鹹豬肉拌飯!(近捷運新埔站4號出口)",
    "hours": "週一～週日11:30~20:45"
  },
  {
    "file": "12221993505.md",
    "title": "【台北信義區吃到飽】饗饗INPARADISE，４６樓吃到飽自助餐廳，必吃肋眼牛排、炙燒鮭魚肚握壽司！",
    "hours": "null"
  },
  {
    "file": "12222002166.md",
    "title": "【台北陽明山餐廳】白房子Yang Ming Caf'e，沙朗牛排/約會餐廳/牛排餐廳。",
    "hours": "null"
  },
  {
    "file": "12222009261.md",
    "title": "【征服台灣小百岳全紀錄】第四座-八里觀音山\"真\"硬漢嶺，攀岩坡度將近90度長達五層樓高，挑戰三個硬漢試煉大公開!",
    "hours": "null"
  },
  {
    "file": "12222019104.md",
    "title": "【林口美食】台灣山豬城，假日場場爆滿沒訂位吃不到!? 超高CP值10人合菜好吃到嚇嚇叫，園區還有小型動物園免費入場!",
    "hours": "週一~週日 早上11:00~21:00 (附設免費停車場)"
  },
  {
    "file": "12222020868.md",
    "title": "【中和早午餐】豆司苑，新版不受控起司肉蛋吐司，起司控必點!!!",
    "hours": "null"
  },
  {
    "file": "12222022221.md",
    "title": "【手錶推薦】LOBOR Watches，New York Bethune Brown簡約又大方，男女都能輕鬆駕馭!",
    "hours": "null"
  },
  {
    "file": "12222026874.md",
    "title": "【台北萬華】冰雪湯冰舖，超級芋頭牛奶冰，淋上滿滿的芋泥醬和煉乳！",
    "hours": "null"
  },
  {
    "file": "12222045930.md",
    "title": "【台北華山最新打卡點】蛋頭先生期間限定店，巨型夾娃娃機超好拍，免費入場參觀~2018/9/9",
    "hours": "11:00"
  },
  {
    "file": "12222055896.md",
    "title": "【日本人氣零食】戀之盒，在地日本人每月嚴選人氣零食，免運送到家門口!",
    "hours": "null"
  },
  {
    "file": "12222067650.md",
    "title": "【台北下午茶】JellyJelly慢工烘焙，茉莉花奶綠蛋糕清爽好吃，近捷運忠孝新生站!",
    "hours": "週三～週日 12:00～19:00"
  },
  {
    "file": "12222081936.md",
    "title": "【士林美食】便所主題餐廳，搬家改裝後超好拍，推北海道戀奶噴屎鍋!",
    "hours": "週一~週五\\_12：00 - 22：00；假日 AM12：30 - PM22：30"
  },
  {
    "file": "12222096135.md",
    "title": "【台北中山早餐】烤司院碳烤吐司專賣，失控起司肉蛋吐司~濃郁起司加上半熟蛋液，帶點吐司的焦香!",
    "hours": "週一～週六 7:00～13:00 （週日公休）"
  },
  {
    "file": "12222097455.md",
    "title": "【宜蘭三星鄉景點】安農溪分洪堰風景區，安農溪水門一分為二，湍急河流水聲，拍出震撼臨場感，免費拍照景點!",
    "hours": "全年無休"
  },
  {
    "file": "12222101406.md",
    "title": "【宜蘭蘇澳美食】番割田甕缸雞，肉質鮮嫩不乾柴，沾上雞油食用更讚!（新增二訪食記）",
    "hours": "週一~週日 11:00–15:00, 16:00–20:00"
  },
  {
    "file": "12222106764.md",
    "title": "【宜蘭員山景點】香草菲菲芳香植物博物館，天空步道伴隨陣陣花香，下午茶飲品可無限暢飲!",
    "hours": "週二~週日09:00–18:00 (每週一公休)"
  },
  {
    "file": "12222111273.md",
    "title": "【台北火鍋】22:02火鍋。樂活，超澎派海鮮拼盤、滷味六寶，食材新鮮又飽足! (CITYLINK 南港店)",
    "hours": "週日至週四 11:00~21:30；週五至週六(例假日) 11:00~22:00"
  },
  {
    "file": "12222122079.md",
    "title": "【士林染髮推薦】VOL HAIR SALON，2018年今夏嘗試\"歐美系老虎眼石挑染\"，髮型更有線條層次感!",
    "hours": "null"
  },
  {
    "file": "12222128922.md",
    "title": "【LINE＠機器人】尋找美食、景點的機器人兩隻小豬@上架囉，馬上加入好友跟著兩隻小豬@一起玩遍各地吧!!",
    "hours": "null"
  },
  {
    "file": "12222140157.md",
    "title": "【宜蘭精選特輯】宜蘭5個精選景點+5家周邊美食+住宿，週末就來個兩天一夜吧！",
    "hours": "週二～週日 7:00～13:30（賣完為止）"
  },
  {
    "file": "12222162657.md",
    "title": "【桃園觀音景點】康莊蓮園，乘坐大王蓮體驗水上飄，男生也可以坐上去唷～可承受約150公斤重量！",
    "hours": "null"
  },
  {
    "file": "12222165066.md",
    "title": "【永康商圈養生美食】永康錄，香菇糙米雞湯～湯頭清爽不油膩，滴雞精紅蔥雞油拌麵～麵條滑順一口接一口！",
    "hours": "週一~週日12:00～15:00；17:00-21:00"
  },
  {
    "file": "12222170085.md",
    "title": "【桃園下午茶】WakeWake 醒醒工作室，粉紅色球池、富士山山頂平台超好拍，柴犬醬油糰子造型超萌！(2019/07/31歇業)",
    "hours": "週一 ~ 週五 14:00 ~ 18:00；週六～週日11:00～18:00"
  },
  {
    "file": "12222176391.md",
    "title": "【保健飲品】台酒生技黑麥汁，夏季冰涼飲品特調「黑麥蜜桃鮮果茶」、「黑麥葡萄莓果茶」，先酸後甜的滋味衝擊著氣泡！",
    "hours": "null"
  },
  {
    "file": "12222183501.md",
    "title": "【桃園大園景點】竹圍漁港-豬鼻子沙灘，豬鼻子造型消波塊超可愛!",
    "hours": "null"
  },
  {
    "file": "12222188106.md",
    "title": "【台北火鍋】秋豆溢日式鍋物(大坪林店)，爆膏雙紅蟳海陸雙人套餐，紅蟳2隻吃爽爽!",
    "hours": "11:30–14:30, 17:00–22:00"
  },
  {
    "file": "12222204975.md",
    "title": "【台北飲品】元氣果汁(台北信陽店)，漸層果汁繽紛好喝，推薦~盜夢(火龍果+蘋果)，口感清爽、甜中帶酸的滋味!",
    "hours": "週一～週日11:00～20:30"
  },
  {
    "file": "12222209520.md",
    "title": "【捷運台北車站美食】瓦法奇朵，乾燒火鍋加價購只要$99元，安格斯大肋眼牛排12oz/溫體牛溫泉蛋披薩/巧克力鬆餅火鍋，餐點種類多樣化!",
    "hours": "11:30~22:00"
  },
  {
    "file": "12222217209.md",
    "title": "【台北萬華冰品】杏玥冰坊，手工圓仔冰+布丁ㄉㄨㄞㄉㄨㄞ超欠吃，剉冰、糖水不夠都可免費添加唷！",
    "hours": "週一～週日11：30-21：30"
  },
  {
    "file": "12222220761.md",
    "title": "【台北日本料理】一番食堂，海鮮丼套餐超豐盛，鮭魚肉質新鮮、越嚼越香，用餐每人附一碗味噌湯！",
    "hours": "週二~週日11:00–14:00, 17:00–21:00 (每週一公休)"
  },
  {
    "file": "12222221922.md",
    "title": "【淡水咖啡廳】錘子咖啡烘焙坊，有好拍的摩艾石像、寬敞的室外庭園，六日才有營業喔！",
    "hours": "週六日10:00–18:00"
  },
  {
    "file": "12222237756.md",
    "title": "【板橋餐酒館】Two Little Monkey Bistro 精釀啤酒餐酒館，推薦「蜂蜜肉桂蘋果薄餅」，消費滿低消還可包場活動！",
    "hours": "週二～週五11:30～22:30；"
  },
  {
    "file": "12222251328.md",
    "title": "【台北餐酒館】Jamie's 小酒廚，無菜單異國料理，粉紅泡泡調酒更讓人驚豔~(近捷運國父紀念館站)",
    "hours": "週二~週日 20:00～3:00 (17:00～20:00為預約制)"
  },
  {
    "file": "12222271890.md",
    "title": "【永和日式料理】千幸壽司，生鮭魚丼油脂適中、越嚼越香甜，細細品嘗每一口能吃出食物的美味！",
    "hours": "週一～週日11:30～14:00；17:00～21:00"
  },
  {
    "file": "12222281190.md",
    "title": "【天母美食】鴉片粉圓，晶瑩剔透粉圓超療癒，搭配底層糖水一起吃很消暑！",
    "hours": "週一～週日 12:30～22:00"
  },
  {
    "file": "12222286011.md",
    "title": "【台北蛋糕】全統西點麵包，芋頭生乳捲內餡爆多，吃得到芋頭顆粒，長輩也喜歡吃!",
    "hours": "null"
  },
  {
    "file": "12222287223.md",
    "title": "【台北景點】鶯歌石登山步道，岩石形狀像收翼的鳥，需拉繩攀爬，賞鶯歌街景！",
    "hours": "null"
  },
  {
    "file": "12222288126.md",
    "title": "【鶯歌小吃】勇伯垃圾麵，鶯歌在地特色古早麵，營業至凌晨1:30!",
    "hours": "週一～週日16:00~凌晨1:30"
  },
  {
    "file": "12222301743.md",
    "title": "【台北下午茶】Red Circle紅圈圈，舒肥豬里肌貝果堡脆口彈牙，北海道乳酪蛋糕\"入口即化\"!(附完整菜單)",
    "hours": "週二～週五 10:00～18:00；週六日9:00～18:00"
  },
  {
    "file": "12222318477.md",
    "title": "【台北大安】富士咖哩 Fuji Curry，富士咖喱雙拼(牛肉+雞肉)，咖哩醬濃郁微辣，吃完很有飽足感!",
    "hours": "週一～週六11:30-15:00;17:00-20:30"
  },
  {
    "file": "12222322050.md",
    "title": "【台北中山】新葡苑餐廳，脆皮烤鴨一鴨二吃，外皮金黃脆嫩，肉質細膩不乾柴(附完整菜單)",
    "hours": "週一~週日11:30–14:30, 17:30–21:30"
  },
  {
    "file": "12222336297.md",
    "title": "【新莊火鍋推薦】御守石頭火鍋，「精選海陸雙拼」份量超值，附豐盛菜盤、附餐、飲料、冰淇淋！(附完整菜單)",
    "hours": "週一~週日11:30~23:30"
  },
  {
    "file": "12222346128.md",
    "title": "【台北中山】呷滴 Jia Dee，用餐不限時咖啡店，推炙燒香蕉蛋糕，提供wifi、充電插座！",
    "hours": "週一~週日12:00~21:00"
  },
  {
    "file": "12222373182.md",
    "title": "【台北大安美食】NoName咖哩カレーライス專門店，無名牛肉咖哩份量飽足，唐揚炸雞外脆內嫩！",
    "hours": "週一~週六11:00 - 14:00 、 16:00 - 20:00 (週日公休)"
  },
  {
    "file": "12222381651.md",
    "title": "【台北中山美食】福大山東蒸餃大王，蒸餃每顆餡料飽滿會噴汁(近捷運中山站2號出口)",
    "hours": "週一~週六11:30~20:30 (週日公休)"
  },
  {
    "file": "12222382542.md",
    "title": "【台北中山美食】甘榜馳名海南雞飯，正宗馬來西亞海南雞飯，沙勞越胡椒湯可免費續!",
    "hours": "週一~週日11:00~20:30"
  },
  {
    "file": "12222391554.md",
    "title": "【捷運市政府美食】HIVE 巢 ● 餐廳，每種歐式餐點都美味，不需花大錢也能吃到分子料理，覆盆子巧克力塔必點！（附完整菜單）",
    "hours": "週一~週六 10:30~20:30 (週日公休)"
  },
  {
    "file": "12222401151.md",
    "title": "【天母美食】官也溫菜石頭火鍋專賣(天母店)，經典石頭火鍋拌炒，健康低脂牛肉質鮮嫩美味! (近捷運芝山站)",
    "hours": "平日12:00-14:00 (用餐至14:30)/17:00-21:30 (用餐至22:00)"
  },
  {
    "file": "12222422418.md",
    "title": "【韓國泡麵】農心浣熊香辣海鮮炒烏龍麵，浣熊造型魚板好療癒，香辣濃郁程度讓人一吃就上癮～",
    "hours": "null"
  },
  {
    "file": "12222426732.md",
    "title": "【淡水小吃】麻吉奶奶鮮奶麻糬，舖上滿滿花生粉，冰冰涼涼軟綿口感！（附完整菜單）",
    "hours": "週一~週日12:00–20:30"
  },
  {
    "file": "12222444225.md",
    "title": "【征服台灣小百岳全紀錄】第六座-金面山/剪刀石/論劍亭/竹月寺 IG熱門景點 拍出驚險懸崖照 還能一覽松山機場 遠眺101",
    "hours": "null"
  },
  {
    "file": "12222450813.md",
    "title": "【台北火鍋】極禾鍋物-蘆洲店，加勒比龍王四人重量套餐，兩隻36盎司野生龍蝦，肉質細緻好鮮甜！",
    "hours": "週一~週五11:30 - 14:30 、 17:00 - 23:00；週六日 11:30 - 23:00"
  },
  {
    "file": "12222466077.md",
    "title": "【萬華早餐】原西園橋下燒餅油條，燒餅加蛋外酥內嫩，熱騰騰現點現做，要有排隊的心理準備！(近捷運龍山寺站)",
    "hours": "週一~週六 6:30~11:00 (週日公休)"
  },
  {
    "file": "12222472086.md",
    "title": "【台北牛肉麵】林東芳牛肉麵，2018台北米其林必比登推介，重新改裝後變得寬敞好高級!",
    "hours": "週一~週六 11:00~凌晨2:00 (週日公休)"
  },
  {
    "file": "12222472512.md",
    "title": "【台北小吃】安東街彰化肉圓，先蒸後炸，外皮軟嫩、內餡豬肉紮實，超人氣排隊美食，一天只營業2小時!(近捷運忠孝復興站)",
    "hours": "週一~週六 15:30~18:30"
  },
  {
    "file": "12222489126.md",
    "title": "【宜蘭冬山咖啡館】佐佐清水自家烘焙咖啡館(生態綠舟店)，「清澄福祿乳酪蛋糕」三種層次有酸有甜，以平實價格就能吃到手工甜點(近冬山火車站)",
    "hours": "null"
  },
  {
    "file": "12222492327.md",
    "title": "【宜蘭頭城景點】頭城濱海森林公園，八角瞭望台/旋轉樓梯交錯空間，復古氛圍好好拍!",
    "hours": "08:00–17:00"
  },
  {
    "file": "12222497469.md",
    "title": "【宜蘭五結美食】來來牛排館，蒜香脆皮雞排超對味，餐點均附脆皮濃湯、沙拉及甜點，加麵免費/飲料無限續/不收服務費",
    "hours": "週一~週日11:00~22:00"
  },
  {
    "file": "12222513225.md",
    "title": "【宜蘭礁溪景點】甲鳥園，清水模鴨舍建築好好拍，品嘗鴨蛋做成的鴨蛋糕及滷蛋~",
    "hours": "週一~週日08：00~18：00"
  },
  {
    "file": "12222513993.md",
    "title": "【宜蘭美食】解憂商號(沒來吃粥 渾身不自在)，超澎湃痛風粥滿滿10幾隻鮮蝦＋2隻天使紅蝦，還有一整隻完整的螃蟹，根本是海鮮控的天堂！",
    "hours": "17:00～1:00"
  },
  {
    "file": "12222518160.md",
    "title": "【宜蘭住宿】天使輕旅．礁溪溫泉Angels' Inn，景觀溫泉客房~享受礁溪美人湯溫泉，窗外還有火車穿梭身影!(鄰近礁溪火車站)",
    "hours": "null"
  },
  {
    "file": "12222538101.md",
    "title": "【宜蘭景點】仁山植物園，歐式庭園景觀好好拍，偶爾走走享受芬多精也不錯(免費入園)",
    "hours": "8:00"
  },
  {
    "file": "12222538449.md",
    "title": "【宜蘭美食】漁樂釣魚碳烤休閒餐廳，吃海鮮還可免費釣魚，招牌碳烤台灣鯛魚魚肉細緻無腥味，兩人吃爽爽!!",
    "hours": "週一~週日 9:00~19:00"
  },
  {
    "file": "12222542751.md",
    "title": "【台北餐廳】「六福客棧」金鳳廳，雙人龍鮑烤鴨套餐，波士頓活龍蝦/鮑魚/脆皮烤鴨及海參，一次滿足愛吃海鮮和港點的人~ (捷運松江南京站)",
    "hours": "午餐11:30-14:30；下午茶14:30-17:00；晚餐18:00-21:30"
  },
  {
    "file": "12222543198.md",
    "title": "【宜蘭兩天一夜】精選6個宜蘭打卡景點+6家人氣美食+住宿，週末就該這樣放鬆~收拾行李就能出發啦!",
    "hours": "8:00～15:00"
  },
  {
    "file": "12222551871.md",
    "title": "【台北韓式烤肉】南大門韓國烤肉，免動手有專人幫忙烤肉，大口吃生菜包豬五花肉!",
    "hours": "週二~週日17:00~3:00"
  },
  {
    "file": "12222570474.md",
    "title": "【台北早午餐】MORNING GO Brunch，招牌特製三明治，餐點新鮮大份量，吃完超有飽足感~(近捷運小巨蛋站)",
    "hours": "null"
  },
  {
    "file": "12222574542.md",
    "title": "【基隆七堵景點】富民橋親水空間(瑪陵坑)，溪水清澈好消暑，還可免費給魚咬腳皮!",
    "hours": "null"
  },
  {
    "file": "12222585387.md",
    "title": "【中和日式丼飯推薦】初牛炭火直燒丼飯專賣店，招牌碳烤厚切牛排丼，以炭火現烤的鮮嫩牛排，實在是爽度爆棚!(中和環球店)",
    "hours": "週一~週日11:00-22:00"
  },
  {
    "file": "12222618789.md",
    "title": "【台南親子民宿】黃色風箏yellowkite，驚艷芬蘭雙人房寬敞舒適，還有溜滑梯造型房型，附設兒童沙池、溜滑梯及旋轉木馬!",
    "hours": "下午16:00以後入住 / 中午12:00以前退房"
  },
  {
    "file": "12222631200.md",
    "title": "【台南北門景點】井仔腳瓦盤鹽田，一座座純白鹽田好好拍，北門區第一座鹽田， 免門票/免停車費~",
    "hours": "08:30～18:00"
  },
  {
    "file": "12222644040.md",
    "title": "【宅配蛋糕/伴手禮】C'est si bon幸福頌，浪漫軟式年輪/雪霜熔岩乳酪，結合乳酪冰餡與年輪蛋糕的創新口味，3種吃法一次滿足你的味蕾～",
    "hours": "null"
  },
  {
    "file": "12222651666.md",
    "title": "【台南七股旅遊】永順號觀光漁筏+烤鮮蚵吃到飽只要250元，鮮蚵鮮美多汁~不限時間吃爽爽~",
    "hours": "上午9:00-下午6:00"
  },
  {
    "file": "12222659328.md",
    "title": "【台南白河景點】萬里長城文化主題館，體驗穿古裝戲服拍照，一秒穿越到劇中!",
    "hours": "早上08:30-下午17:00"
  },
  {
    "file": "12222704472.md",
    "title": "【征服台灣小百岳全紀錄】第七座-七星山 就是要爬七星山看整片芒草才過癮啊~",
    "hours": "null"
  },
  {
    "file": "12222721587.md",
    "title": "【台北養生料理】雙月食品社(中和店)，蛤蜊燉雞湯料多實在，每日新鮮溫體的仿土雞腿肉，特別香甜Q彈有勁～",
    "hours": "週一至週六 11:00-14:00 17:00-20:00"
  },
  {
    "file": "12222726009.md",
    "title": "【台南住宿】清水漾H Villa Inn，峇里島風格Villa套房、私人露天泳池，適合放鬆度假、拍照打卡的好地方!",
    "hours": "7:00"
  },
  {
    "file": "12222754656.md",
    "title": "【新莊魯肉飯】四惟魯肉飯，魯肉飯只要20元/吳郭魚一條45元，銅板美食CP值超高!!!",
    "hours": "週二～週日10:00～20:30(週一公休，週二隔週休)"
  },
  {
    "file": "12222758691.md",
    "title": "【台南景點】牛埔泥岩水土保持教學園區，景觀獨特的月世界風貌，環湖步道欣賞自然湖光山色~",
    "hours": "週一-週日09:30~17:00"
  },
  {
    "file": "12222787395.md",
    "title": "【台南景點】老塘湖藝術村，湖畔景觀賞廢墟古城好好拍，隨處可見歷史痕跡!",
    "hours": "8:00"
  },
  {
    "file": "12222790032.md",
    "title": "【台南美食】餃子雷達，現煎雪花燒餃，底層酥脆、內餡飽滿，店內還有滿滿七龍珠收藏!",
    "hours": "週一~週日11:00~22:00(週日公休)"
  },
  {
    "file": "12222795936.md",
    "title": "【台南三天兩夜】10個台南打卡景點+3家人氣美食+住宿，台南深度之旅行程規劃~收拾行李就能出發啦!",
    "hours": "null"
  },
  {
    "file": "12222823665.md",
    "title": "【彰化和美景點】卡里善之樹．為愛撐傘，繽紛彩虹傘巷/彩虹隧道超好拍，ＩＧ熱門免費景點！",
    "hours": "null"
  },
  {
    "file": "12222827667.md",
    "title": "【彰化鹿港景點】台灣玻璃館，「黃金隧道」呈現玻璃LED燈視覺效果，完全讓人大開眼界!",
    "hours": "上午08:00至下午08:00"
  },
  {
    "file": "12222841185.md",
    "title": "【彰化火鍋】沐軒鍋物，花雕雞鍋肉質軟嫩/湯頭溫潤順口，還有網美牆可拍照!(已歇業)",
    "hours": "週一～週日 11:30～14:00；17:00～21:00"
  },
  {
    "file": "12222850968.md",
    "title": "【彰化住宿】米蘭汽車旅館-田尾館，雙人房設備齊全/空間寬敞，雙人按摩浴缸、SPA蒸氣室，邊泡澡邊看電視就是一大享受啊!",
    "hours": "null"
  },
  {
    "file": "12222863751.md",
    "title": "【台北吃到飽】王朝大酒店SUNNY BUFFET，餐點豐富享用無國界料理，多達20樣以上精緻甜點!兩人同行壽星免費(近捷運小巨蛋)",
    "hours": "06:30"
  },
  {
    "file": "12222874917.md",
    "title": "【台北美食】齊樂小館(精緻功夫料理/麻辣串)，推薦：麻辣串鍋、梅干扣肉、粉蒸排骨、什錦菜，一個人用餐也可以吃的到功夫菜。(近捷運南京復興站)",
    "hours": "週一至週六11:30 ~14:30、17:30 ~21:00(每週日公休)"
  },
  {
    "file": "12222894153.md",
    "title": "【中和火鍋】金鍋盃中和店，超澎湃四人全蝦套餐，將近20隻蝦子吃爽爽，大推澳洲9+板腱肉、西班牙伊比利豬！",
    "hours": "週一～週日11:30 ~ 01:00（最後收客23:00）"
  },
  {
    "file": "12222929421.md",
    "title": ">-",
    "hours": "10:30-22:00"
  },
  {
    "file": "12222962829.md",
    "title": ">-",
    "hours": "null"
  },
  {
    "file": "12222969117.md",
    "title": "【彰化+雲林兩天一夜】情侶約會、踏青景點都在這，放假就到彰化、雲林玩，好多美景可拍超殺記憶體!",
    "hours": "9:00"
  },
  {
    "file": "12222992559.md",
    "title": "【淡水美食】緩緩早午餐(已歇業)，超豐富大份量大象疊疊樂，同時吃到貝果、帕尼尼和拖鞋堡，魚菜共生系統~自己吃的菜自己種!",
    "hours": "09:00~17:00"
  },
  {
    "file": "12223031292.md",
    "title": "【台北萬華吃到飽】凱達大飯店-百宴自助餐廳Buffet吃到飽，當月壽星兩人同行享85折!",
    "hours": "6:00"
  },
  {
    "file": "12223048797.md",
    "title": "【內湖下午茶】不想上班 只好喝拿鐵，超厭世「不想上班」文字鬆餅，療癒黑糖牛奶甜而不膩!",
    "hours": "週一~週五 07:30-17:30、週六日 08:30-17:30"
  },
  {
    "file": "12223049217.md",
    "title": "【台北韓式料理】咚咚家dondonga韓式豬肉，大推伊比利豬綜合盤，免動手有專人幫忙烤肉!",
    "hours": "12:00-14:30；17:30-22:00"
  },
  {
    "file": "12223085133.md",
    "title": "【內湖大直美食】鍋饕精緻涮涮鍋，隱藏版「剝皮辣椒湯底」+ 重量級雪花黑牛大份量超滿足~",
    "hours": "週一~週五11:00 - 14:30；17:00 - 22:00、週六日11:00 – 22:00"
  },
  {
    "file": "12223092090.md",
    "title": "【桃園楊梅】貓森咖啡 NEKO MORI CAFE，享用輕食餐點，用餐還有貓咪作伴，貓咪控必訪！",
    "hours": "週一至週日11:30-19:30 (18:30不再進場)"
  },
  {
    "file": "12223101816.md",
    "title": "【台北內湖】象園咖啡，超萌\"小象鬆餅\"內餡麻糬外酥內嫩，附城堡造型溜滑梯!(碧湖公園正對面)",
    "hours": "週一~週日11:00~21:00，週六日10:00~21:00"
  },
  {
    "file": "12223118796.md",
    "title": "【桃園中壢美食】泰多蝦流水道夾蝦場，LED流水道「泰國流水蝦」吃到飽，蝦子肥美新鮮還有蝦膏!!",
    "hours": "週一～週五 下午17:30～01:00、週六日 中午11:30～01:00"
  },
  {
    "file": "12223119597.md",
    "title": "【桃園楊梅景點】左岸森林多肉植物咖啡館，各式多肉植物超療癒，漸層彩虹階梯好夢幻~",
    "hours": "10：00－17：30"
  },
  {
    "file": "12223137939.md",
    "title": "【桃園景點】鐵木瀑布，清澈池水呈現碧綠色，手腳並用爬繩索而下，完全與世隔絕的秘境!",
    "hours": "null"
  },
  {
    "file": "12223143585.md",
    "title": "【台北燒烤】七輪炭火燒肉，推薦牛五花、豬頸肉、干貝，吃完身上竟然沒油煙味!!!(近捷運忠孝復興站)",
    "hours": "週一~週六6:00-3:00，週日6:00-12:00"
  },
  {
    "file": "12223155567.md",
    "title": "【三重日本料理】鮨壽司大眾食堂，披薩壽司鹹香滋味、餡料飽滿(捷運三重國小站)",
    "hours": "17:00–01:00（每個月第一週星期二休）"
  },
  {
    "file": "12223162143.md",
    "title": "【新竹美食】私嚐居酒屋(貳店)，串燒炸物平價美味.上菜速度快，大推明太子雞肉串，小酌聚會就來這!(近新竹城隍廟)",
    "hours": "週一~週四18：00~2：00；週五六日18：00~2：30（最後供餐時間至1：00）"
  },
  {
    "file": "12223162365.md",
    "title": "【新竹室內景點】藝花源-台灣花鳥園，歐式森林花園超好拍，享受被綠意盎然的花草包圍著!",
    "hours": "10:00 ~ 17:00"
  },
  {
    "file": "12223164393.md",
    "title": "【新竹美食】做食豔脆皮煎餃，「章魚燒脆皮煎餃」帶有大阪燒口味，內餡滿滿的高麗菜.豬肉!(近新竹科學園區)",
    "hours": "週一至週五11：00－14：00／17：00－20：30；週日17：00－20：30（週六公休）"
  },
  {
    "file": "12223164771.md",
    "title": "【台北捷運中山站美食】檀島香港茶餐廳(南西店)，終於讓我吃到192層酥皮蛋塔!!!蛋香滑嫩.層層分明~",
    "hours": "：週日～週四11:00–21:30；週五.週六11:00–22:00"
  },
  {
    "file": "12223168962.md",
    "title": "【台北松山美食】海峽會頂級海陸鍋，超豪華私人包廂，美國牛小排入口即化超軟嫩!(近捷運小巨蛋站)",
    "hours": "11：30～14：30"
  },
  {
    "file": "12223171128.md",
    "title": "【新竹免費景點】北埔冷泉，超壯觀水簾大瀑布，附冷泉池、泡腳池、涼亭和更衣室~",
    "hours": "null"
  },
  {
    "file": "12223171560.md",
    "title": "【新竹免費景點】豆腐岩，療癒系豆腐岩石好好拍，IG熱門打卡景點!(附免費停車場)",
    "hours": "null"
  },
  {
    "file": "12223199655.md",
    "title": "【新竹美食】老皮牛肉麵，紅燒口味牛肉麵，豆花、豆漿免費吃到飽！（附免費停車場）",
    "hours": "11:00–14:00, 16:45–20:00（每週一公休）"
  },
  {
    "file": "12223221954.md",
    "title": "【苗栗美食】星仙草，採用兩年以上老仙草乾，必點\"招牌芋圓仙草凍\"，吃得到香醇的仙草原味~",
    "hours": "10:00 ~ 18:00 (週一休)"
  },
  {
    "file": "12223224609.md",
    "title": "【苗栗美食】金榜麵館，大份量平價客家粄條，在地人氣排隊店!",
    "hours": "07:00–20:00"
  },
  {
    "file": "12223226886.md",
    "title": "【南京復興美食】日好咖哩飯，咖哩飯不用１５０元就能吃到，高CP值好美味!",
    "hours": "週一~週六 11：00~20：00"
  },
  {
    "file": "12223226952.md",
    "title": "【牛舌專賣店，板橋美食】吉村·牛舌 Yoshimura，台北第一家牛舌飯，推薦「吉村牛三拼定食」，三種肉類一次滿足!（近捷運板橋站3號出口）",
    "hours": "週一~週日11：30~20：30"
  },
  {
    "file": "12223237371.md",
    "title": "【苗栗美食】湯家大肉圓，肉圓大顆又飽滿，淋上滿滿的客家蒜苗醬，厚實有Ｑ勁！",
    "hours": "週一至週日8：00-18:00"
  },
  {
    "file": "12223243191.md",
    "title": "【淡水美食】晉家門，快樂豚五花肉盤超大份量，時令海鮮拼盤不用５００元就能吃到，還有白飯、飲料可無限續！",
    "hours": "週一~週五17:00–23:00；週六日11:30~23:00"
  },
  {
    "file": "12223253736.md",
    "title": "【苗栗美食】桂花心語，繽紛五色「桂花漉湯臍」好拍又軟Ｑ，加上黑糖薑汁與花生，淋上桂花蜜增添風味！",
    "hours": "週一至週日09:30-17:30"
  },
  {
    "file": "12223279038.md",
    "title": "【板橋美食】老味噌居酒屋-新埔店，燒烤功夫一級棒，打卡還送日式麻糬，適合小酌聚餐的好地方!",
    "hours": "週一~週日18:00~1:30"
  },
  {
    "file": "12223303719.md",
    "title": "【中和便當美食】梁社漢排骨(建一店)，排骨飽滿厚實、炸雞腿酥脆多汁，結合悠遊卡、LINE PAY自助點餐!",
    "hours": "週一~週日10:30-20:30"
  },
  {
    "file": "12223306788.md",
    "title": "【苗栗景點】泰安竹林秘境(烏嘎彥竹林)，兩側翠綠竹林隧道超好拍，一起來竹林森呼吸吧~",
    "hours": "null"
  },
  {
    "file": "12223331907.md",
    "title": "【宜蘭飯店】礁溪長榮鳳凰酒店，客房介紹/桂冠自助餐廳，環境設備和服務超優!",
    "hours": "早餐 6:30~10:00；午餐 11:30~14:00"
  },
  {
    "file": "12223355343.md",
    "title": "【台北中山區美髮推薦】FIN Hair Salon，2019年來個春夏新造型~超多藝人指定的髮型設計師Andy!(近捷運中山站)",
    "hours": "null"
  },
  {
    "file": "12223375437.md",
    "title": "【宜蘭隱藏景點】棲蘭神木園，亞洲最大檜木神木園，「賽德克巴萊」拍攝地點~入園區需事先申請喔!(力麗馬告生態園區-神木園)",
    "hours": "null"
  },
  {
    "file": "12223376820.md",
    "title": "【台北忠孝復興美食】孔陵一隻雞，正宗韓式燉雞「一雞三吃」，雞湯精華清爽不油膩！（近忠孝復興捷運站3號出口）",
    "hours": "週一~週日 11：00~22：30"
  },
  {
    "file": "12223382313.md",
    "title": "【台北東區韓式燒肉推薦】娘子韓食，壽星免費贈送燒肉蛋糕，還有貼心的桌邊服務!(近捷運忠孝敦化站2號出口)",
    "hours": "週一~週五17:30–23:30；六日12:00–15:00, 17:30–23:30"
  },
  {
    "file": "12223389495.md",
    "title": "【公館火鍋吃到飽】鼎豐鴛鴦麻辣火鍋，海鮮肉品無限量自助吃到飽，當月壽星7折優惠!(近捷運公館站1號出口)",
    "hours": "11:30–00:30(最後入場時間23:00)"
  },
  {
    "file": "12223402476.md",
    "title": "【內湖韓式料理】三元花園韓式餐廳，8種韓式小菜免費吃到飽，吃完身上不會有燒烤味唷！",
    "hours": "週一~週日: 11:30~13:00，17:30~20:00"
  },
  {
    "file": "12223424544.md",
    "title": "【台北牛肉麵】牛易館，三寶牛肉麵三種肉一次滿足，還有冬瓜茶可無限暢飲!（近捷運忠孝復興）",
    "hours": "週一~週日11：30~20：30（供餐時間到20：00）"
  },
  {
    "file": "12223464903.md",
    "title": "【台北港式料理】行運冰室，道地香港茶餐廳，推薦滑蛋蝦仁飯、冰火菠蘿油！（近捷運南京復興站）",
    "hours": "週一~週五 09:30-21:00；六日 11:00-21:00"
  },
  {
    "file": "12223472718.md",
    "title": "【捷運南京復興站美食】糰粥舖，九宮格定食/養生粥/飯糰/刈包，排骨粥、五穀飯可免費續!(近遼寧夜市巷內)",
    "hours": "週一~週六10：30~14：30；17：30~20：30（週日公休）"
  },
  {
    "file": "12223484025.md",
    "title": "【捷運南京復興美食懶人包】居酒屋/牛排/火鍋/燒烤/港式料理/咖哩飯，同場加映-遼寧街夜市小吃推薦(2020/12月更新)",
    "hours": "null"
  },
  {
    "file": "12223484784.md",
    "title": "【台北牛肉麵懶人包】精選11間台北牛肉麵店，還有台北米其林推薦名店！(2020/10月更新)",
    "hours": "null"
  },
  {
    "file": "12223488060.md",
    "title": "【台北晶華酒店】Robin's鐵板燒，肋眼牛排鮮嫰帶有嚼勁，情人節約會餐廳推薦！(近捷運中山站2號出口)",
    "hours": "午餐 12:00~2:30pm（最後點餐 2：00pm）每位NT$2,050+10%起；"
  },
  {
    "file": "12223508826.md",
    "title": "【台北下午茶】Amandier cafe雅蒙蒂創意飲食(新生店)，歐式浪漫風格咖啡館!(近捷運忠孝新生站4號出口)",
    "hours": "週二~週日11：00 - 20：00（每週一公休）"
  },
  {
    "file": "12223535880.md",
    "title": "【台北麻辣鴛鴦火鍋】木蘭閣，七彩活龍蝦肉質細緻，麻辣湯底麻香帶辣!(近捷運小巨蛋站)",
    "hours": "週一~週日 11:30-23:00"
  },
  {
    "file": "12223548513.md",
    "title": "【台北陽明山繡球花】名陽匍休閒農莊(2019/6/9最新花況)，浪漫藍紫色繡球花綻放中，賞花趁現在!",
    "hours": "平日9：00~17：00（花季期間無公休）；假日9：00~18：00"
  },
  {
    "file": "12223560903.md",
    "title": "【武漢零食分享】多達40種零食、飲料推薦，初次嘗鮮真空包裝的帶殼鵪鶉蛋，味道竟然像鐵蛋!!??",
    "hours": "null"
  },
  {
    "file": "12223564962.md",
    "title": "【中國湖北景點】仙桃夢里水鄉文化旅遊區，500座足球場大的水上渡假村/豪華集裝箱賓館/水天一色的美景/清朝楚風水船帶你夢見水鄉!",
    "hours": "null"
  },
  {
    "file": "12223565088.md",
    "title": "【台北陽明山餐廳】松竹園，菜色道道美味，自家養雞場肉質細緻鮮甜，消費滿額還送小饅頭!",
    "hours": "平日１１：３０～２０：３０；例假日１１：００～２１：００（全年無休）"
  },
  {
    "file": "12223578324.md",
    "title": "【征服台灣小百岳全紀錄】第八座-皇帝殿登山步道，東峰+東北峰縱走，連續5小時不間斷爆發肌耐力! 挑戰兼具美景的石碇登山景點!",
    "hours": "null"
  },
  {
    "file": "12223593342.md",
    "title": "【台北日本料理】山花割烹，品嘗國寶級割烹料理，鮪魚中腹油脂豐富、入口即化!(近捷運信義安和站)",
    "hours": "週一到週日12：00~14：30；18：00~21：30"
  },
  {
    "file": "12223620966.md",
    "title": "【台中南屯美食】故事．家義大利美食坊，獨家手工特製「鬼島飯丸」，搭配和風奶油燒肉對味且無違和！",
    "hours": "週一～週日10:00–14:00，17:00–21:00（每週二公休）"
  },
  {
    "file": "12223629591.md",
    "title": "【台中逢甲住宿】葉綠宿旅館Green Hotel，清新綠意網美牆超好拍，13米高植生牆/天井鞦韆/陪睡盆栽!(近逢甲夜市)",
    "hours": "下午15:00；退房時間：上午11:00"
  },
  {
    "file": "12223641558.md",
    "title": "【台北牛肉麵】神仙牛肉麵，「天官四福麵」份量十足，一次享有牛腩、牛腱肉、牛筋和牛肚！",
    "hours": "11:30～21:00（供餐時間至20:30）"
  },
  {
    "file": "12223648983.md",
    "title": "【桃園蘆竹免費景點】海福宮，超好拍的土地公彩繪牆，還有超吸晴金雞母！(近西濱快速公路)",
    "hours": "null"
  },
  {
    "file": "12223651014.md",
    "title": "【桃園蘆竹免費景點】坑口彩繪村，彩繪牆展現農村風情，細膩畫風呈現懷舊特色！",
    "hours": "自由參觀，但請勿喧鬧嬉戲或進入民宅，影響居民生活，並維護環境整潔，不亂丟垃圾與攀折花木。"
  },
  {
    "file": "12223655469.md",
    "title": "【桃園大園竹圍漁港】邱記海產店，食材新鮮好吃，生魚片鮮甜與香氣交織在一起！",
    "hours": "9：30~20：00"
  },
  {
    "file": "12223658727.md",
    "title": "【台北雙連冰品】貨室甜品，無糖可可牛乳冰好消暑，帶有淡淡的牛奶香!(近捷運雙連站)",
    "hours": "週二～週日 13：00～21：30"
  },
  {
    "file": "12223673613.md",
    "title": "【台中石岡景點】彩虹山舍，超好拍巨型美腿裝置藝術、彩虹心心步道，以及小小兵後花園區～",
    "hours": "11:30 ~ 20:30 (週一~週二休園)"
  },
  {
    "file": "12223676184.md",
    "title": "【台北華山市場美食】恩記牛肉麵，主廚牛肉麵選用牛肋條肉和牛筋，湯頭紅燒香氣十足！",
    "hours": "週一至週六 10:00-19:30 ，週日10:00-16:30"
  },
  {
    "file": "12223682214.md",
    "title": "【捷運台北車站美食】瓦法奇朵，點火鍋川菜買一送一，還再送爆漿蛋糕一份！",
    "hours": "週一～週日11:30~22:00"
  },
  {
    "file": "12223695057.md",
    "title": "【台中室內景點】新天地西洋博物館，欣賞千件歐洲藝術珍藏品，彷彿置身歐式宮廷！",
    "hours": "週一~週日10:00-22:00"
  },
  {
    "file": "12223705311.md",
    "title": "【台北東區韓式燒烤】燒桶子韓風立燒，韓式小菜、生菜可免費續，還有貼心的桌邊服務！",
    "hours": "☀️午餐：週一至週五 11:00 -13:30 (僅提供韓式燒肉丼飯，可內用/外送/外帶)"
  },
  {
    "file": "12223722312.md",
    "title": "【台中逢甲美食】赤鬼炙燒牛排(逢甲店)，無骨牛小排軟嫩有嚼勁，自助吧湯品、飲料可免費無限續！",
    "hours": "週日~週四12：00~00：00；週五~週六12：00~1：00"
  },
  {
    "file": "12223725003.md",
    "title": "【2022台中兩天一夜行程規劃】養眼巨型紅裙長腿．大人小孩都愛的鯨魚溜滑梯．探索千件歐洲藝術品，週末就醬玩台中！",
    "hours": "24小時開放"
  },
  {
    "file": "12223725771.md",
    "title": "【台中早午餐】Mirror Cafe競子咖啡，彩色手工三明治營養滿分，還有夢幻的愛麗絲仙境場景!(近台中草悟道)",
    "hours": "週一~週日10：00~18：00(週二公休)"
  },
  {
    "file": "12223733652.md",
    "title": "【台北泰式料理】Kanokwan老麵攤，平價好吃泰式料理，推薦紅咖哩豬肉飯、炒粿條！",
    "hours": "週一至週五 10:30-21:00，週六 10:30-20:30（週日公休）"
  },
  {
    "file": "12223749156.md",
    "title": "【雲林斗南早午餐】沐光廚房，起司焗烤蔥花鰻頭搭配油煎麵線?中西合併的創意早午餐店在斗南!",
    "hours": "週二～週五７：００～２０：００、週六８：００～２０：００、週日８：００～１４：３０（周一公休）"
  },
  {
    "file": "12223759701.md",
    "title": "【新北市中和水道蝦推薦】乾隆泰皇蝦(已歇業)，LED夾蝦流水道、泰國蝦吃到飽，以及每天現撈深海魚、牡蠣、肉片、時蔬任你吃！",
    "hours": "週一~週日17:00-00:00（最晚收客時間10:30）"
  },
  {
    "file": "12223785894.md",
    "title": "【聯華食品】萬歲牌紅豆胡桃，綿密細緻豆沙搭配酥脆胡桃，女生系滋補系堅果，佐茶小點推薦!",
    "hours": "null"
  },
  {
    "file": "12223789755.md",
    "title": "【捷運市政府站美食】Delhi X Press原味德里印度料理，彩椒茴香咖哩雞肉辛香可口，烤餅表層酥脆內層鬆軟！",
    "hours": "週一至週日 11:00~21:30"
  },
  {
    "file": "12223794690.md",
    "title": "【台中梧棲漁港美食】鹿港平價海鮮餐廳，菜色多種、魚貨新鮮，海雞母一魚兩吃～肉質鮮甜細嫩！",
    "hours": "9:00~19:00"
  },
  {
    "file": "12223800363.md",
    "title": "【台中冰品】東海何媽媽冰店，大份量新鮮芒果牛奶冰，現切芒果新鮮又鮮甜！",
    "hours": "週一~週六14：00~22：00（週日公休）"
  },
  {
    "file": "12223816287.md",
    "title": "【新北板橋美食】慢慢來pizza屋，9吋手工大披薩超滿足，用餐不限時/不收服務費!(近捷運新埔站)",
    "hours": "週一~週日11:30-21:00"
  },
  {
    "file": "12223826625.md",
    "title": "【台北伴手禮推薦】上信饌玉，夏威夷潛艇香甜可口 / 南棗核桃糕口感Q軟不黏牙，健康堅果點心，中秋送禮最佳首選!",
    "hours": "10:30 ~ 21:30"
  },
  {
    "file": "12223844829.md",
    "title": "【台北中山火鍋】汆食 作伙鍋，超豐盛海鮮拼盤多達7種海鮮/金華雞湯入口溫潤清甜，還有設置兒童遊戲區!(近捷運民權西路站)",
    "hours": "週一至週五：上午11:30~下午02:00 , 下午5:30~下午10:30；"
  },
  {
    "file": "12223860111.md",
    "title": "【宜蘭親子民宿】三星白宮，超好拍網美泳池/兒童滑水道/浮誇泳圈，還有免費下午茶和早餐，不用出國就能享受異國度假氛圍！",
    "hours": "１５：００～１７：００"
  },
  {
    "file": "12223864857.md",
    "title": "【台北中山區餐廳】天廚菜館，北平烤鴨二吃，外皮金黃脆口，搭配荷葉餅不油膩!(近捷運中山站)",
    "hours": "週一~週日11：00~14：00；17：00~21：00（中秋節、端午節公休一日）"
  },
  {
    "file": "12223868457.md",
    "title": "【台北室內景點】袖珍博物館，亞洲第一座收藏袖珍藝術品的主題博物館，幾百件精緻12:1袖珍娃娃屋，希望自己縮小住進迷你世界~",
    "hours": "週二至週日 10:00~18:00（每週一公休）"
  },
  {
    "file": "12223883601.md",
    "title": "【宜蘭礁溪美食】酸菜肉圓，肉圓搭配酸菜蹦出新滋味～宜蘭平價小吃！",
    "hours": "9:00~18:00（週四公休）"
  },
  {
    "file": "12223887111.md",
    "title": "【宜蘭礁溪景點】金車生技水產養殖研發中心，免門票看海洋生物水族館，還有鯊魚餵食體驗!",
    "hours": "週一~週日8:00~17:00"
  },
  {
    "file": "12223905480.md",
    "title": "【新北淡水美食】酷媽豬腳、知高飯專賣店，豬腳外皮軟Ｑ又入味，白飯還可免費加量！",
    "hours": "週一~週日10：30~20：30（週六公休）"
  },
  {
    "file": "12223906062.md",
    "title": "【捷運公館美食】新馬辣經典鴛鴦鍋-公館店，13種頂級肉片&阿根廷天使紅蝦吃到飽，以及16種哈根達斯口味任你吃!",
    "hours": "週一～週日11:30–02:00"
  },
  {
    "file": "12223909893.md",
    "title": "【新北淡水美食】龍捲風，廣東粥、炒飯、炒麵、燴飯，份量十足、上菜速度快！",
    "hours": "週一~週日10：00~22：00（週六公休）"
  },
  {
    "file": "12223909956.md",
    "title": "【新北淡水美食】吃(ㄔㄨ)呼義料，平價又美味的義大利麵，還有飲料、玉米濃湯可無限續!",
    "hours": "開學期間\\U0001F449週一~週五11：00~14：30；16：00~20：00；"
  },
  {
    "file": "12223918824.md",
    "title": "【新北新店早午餐】ZOO CAFE 鹿咖啡，動物園特色早午餐，也是間寵物友善咖啡廳!(近捷運大坪林站)",
    "hours": "週一～週五10:00~18:00；週六、週日09:00-18:00"
  },
  {
    "file": "12223930587.md",
    "title": "【台北中山早午餐】Jiala coffee 加辣咖啡，餐點平價又美味，也是間寵物友善咖啡廳!",
    "hours": "週一~週日9：00~18：00（週二公休）"
  },
  {
    "file": "12223933560.md",
    "title": "【宜蘭冰品】11號芋圓，銅板價格就能吃到剉冰、雪花冰、豆花、燒仙草，黑糖挫冰消暑好滋味！",
    "hours": "週二~週日11：00～22：00 （週一公休）"
  },
  {
    "file": "12223937856.md",
    "title": "【新北淡水美食】京焱鐵板燒，紐西蘭菲力軟嫩新鮮，白飯、湯品和飲料無限供應！",
    "hours": "週一~週日11：30~14：00；17：00~21：00"
  },
  {
    "file": "12223939818.md",
    "title": "【台北北投美食】滿來溫泉拉麵，白湯什錦拉麵多達7種配料，湯頭不夠還能免費續加!(近捷運新北投站)",
    "hours": "週一~週日11：30~21：00"
  },
  {
    "file": "12223942641.md",
    "title": "【宜蘭員山景點】勝洋休閒農場，增設釣魚、魚咬腳皮、划竹筏體驗，門口還有好拍的彩虹傘！",
    "hours": "週一~週日9：00~17：00（週三公休）"
  },
  {
    "file": "12223948386.md",
    "title": "【新北淡水美食】正莊古早味好吃雞肉店，雞腿肉質鮮嫩不乾柴，點便當免費送當歸雞清湯！",
    "hours": "週一~週六11：00~20：30（週日公休）"
  },
  {
    "file": "12223948497.md",
    "title": "【新北淡水美食】欣宏牛肉麵，不用$150就能吃到牛雜麵，內用還有冬瓜茶可無限續!",
    "hours": "週一~週六 10：30~21：00"
  },
  {
    "file": "12223974036.md",
    "title": "【新北淡水早午餐】Good Morning Tobo早安兔寶堡，百元平價早午餐，佛卡夏外酥內嫩！",
    "hours": "週二~週五 8：00~15：00；週六日9：00~15：00"
  },
  {
    "file": "12223982916.md",
    "title": "【新北淡水美食】牛Bar(淡海店)，鍋物均一價$189元，白飯、濃湯、爆米花、明治冰淇淋、飲料及冰沙都是無限供應！",
    "hours": "週一~週日11：00~21：00"
  },
  {
    "file": "12224000814.md",
    "title": "【宜蘭冬山景點】斑比山丘，近距離餵食梅花鹿好療癒，憑門票還可免費兌換飼料一份！",
    "hours": "週一~週日10:00 ~ 17:00"
  },
  {
    "file": "12224047068.md",
    "title": "【宜蘭羅東美食】嚐鮮拌島韓式料理，石鍋拌飯/海鮮豆腐鍋/韓式烤肉，內用白飯、海帶湯可無限享用!",
    "hours": "週一~週日11：00~14：00；17：00~21：00（週三公休）"
  },
  {
    "file": "12224047179.md",
    "title": "【新北淡水聚餐餐廳】五花中華料理食坊，每道菜色香味俱全，氣氛佳的中式餐廳！",
    "hours": "週二~週日11：30~14：30；17：30~21：00"
  },
  {
    "file": "12224048061.md",
    "title": "【宜蘭羅東美食】Work Shop 沃克夏義麵坊，義大利麵平價美味，還有濃湯、飲料可免費續！",
    "hours": "週一~週日12：00~14：00；18：00~20：30"
  },
  {
    "file": "12224048958.md",
    "title": "【宜蘭員山景點】可達休閒羊場，免門票小型農場，餵羊咩咩喝奶/吃牧草/餵兔子吃紅蘿蔔，附免費停車場!",
    "hours": "週一~週日9：00~17：00"
  },
  {
    "file": "12224061483.md",
    "title": "【宜蘭室內景點】CP Cheese Factory 超品起司烘焙工坊，各式起司糕點&伴手禮，還有超好拍的歐風大書牆！",
    "hours": "週一~週日9：00~18：00"
  },
  {
    "file": "12224076342.md",
    "title": "【宜蘭頭城景點】灆咖啡Seaview Coffee，室外無敵海景好好拍，還可看到龜山島唷～",
    "hours": "週一~週日10：00~20：00（週二公休）"
  },
  {
    "file": "12224364543.md",
    "title": "【新北板橋美食】潮粥府沙鍋粥，蟹膏粥料多實在，配上各式熱炒小菜超飽足！（近捷運江子翠站）",
    "hours": "週一~週五11:30~14:00、17:20~22:00；週六、日及例假日11：00~22：30"
  },
  {
    "file": "12224378139.md",
    "title": "【台北士林火鍋】牛棒碗安GOBO精緻鍋物，主打自熬老母雞湯底，飲料和霜淇淋無限續，當月壽星用餐還會贈送肉品!",
    "hours": "[午餐]週一 - 週五 12:00-14:00；"
  },
  {
    "file": "12224393250.md",
    "title": "【宜蘭燒烤吃到飽】愛烤愛對囉-宜蘭店，各式韓式烤豬五花、和牛、海鮮吃到飽，還有桌邊烤肉服務!(附最新菜單)",
    "hours": "週一~週日中午12:00~24:00"
  },
  {
    "file": "12224438397.md",
    "title": "【新北三峽美食】小聚餐酒館，必點魚子醬干貝青醬飯，味道濃郁還帶有牽絲口感！",
    "hours": "週一~週日11：30~15：00；17：30~22：00"
  },
  {
    "file": "12224480058.md",
    "title": "【台北日式料理】鑫屋創意日本料理，炙燒鮭魚捲口感鮮美、層次多元，各式刺身/握壽司/丼飯/商業定食!",
    "hours": "週二 - 週日 11:30-14:00；週二 - 週日 17:30-20:30"
  },
  {
    "file": "12224534361.md",
    "title": "【台北中山火鍋】鐤極宴-鍋料理，波士頓龍蝦肉質細緻鮮甜，還有美味蝦膏粥可品嘗！（附完整菜單）",
    "hours": "週一~週日 17:30~24:00"
  },
  {
    "file": "12224559453.md",
    "title": "【台南美食】赤崁璽樓（蔬食餐廳、民宿、鳳梨酥），餐點健康清爽又好吃，環境古意盎然好好拍！（附完整菜單）",
    "hours": "中餐11：30~14：30；晚餐17：30~21：00（全年無休）"
  },
  {
    "file": "12224566929.md",
    "title": "【台南伴手禮】赤崁璽樓鳳梨酥-福祿壽鳳梨酥，100％的土鳳梨餡，吃的到鳳梨絲及原味顆粒!",
    "hours": "11：30~14：30；17：30~21：00（全年無休）"
  },
  {
    "file": "12224572173.md",
    "title": "【台南景點】大坑休閒農場，紫藤夢幻隧道超好拍，還規畫了可愛動物區，情侶約會、親子旅遊就來這吧!",
    "hours": "週一~週日08:00~20:00"
  },
  {
    "file": "12224588028.md",
    "title": "【台南美食】妞妞牙齒肉圓，造型可愛又好吃，搭配泰式酸辣醬完全無違和！",
    "hours": "10：30~20：00（週四公休）"
  },
  {
    "file": "12224611506.md",
    "title": "【淡水月子中心】優寶皇家產後護理之家，全館房型一房一廳，月子餐現煮現送，專屬哺乳室/遊戲室/SPA室/洗髮沙龍/媽媽瑜伽教室!",
    "hours": "10：00~20：00，訪客一律至交誼廳會客；"
  },
  {
    "file": "12224630838.md",
    "title": "【台南美食】大丸家-手作炸雞甜甜圈，起司炸雞甜甜圈～將炸甜甜圈結合雞肉，還有超邪惡的起司牽絲！",
    "hours": "週二~週日 11：30~14：30；17：00~20：00（每週一公休）"
  },
  {
    "file": "12224643141.md",
    "title": "【台南玉井景點】魔法森林景觀餐廳，純白玻璃天空步道超好拍，情侶約會就來這！",
    "hours": "週三 ~ 週日11：00~17:00"
  },
  {
    "file": "12224654406.md",
    "title": "【堅果點心推薦】上信饌玉，夏威夷豆塔/夏威夷潛艇/夏威夷牛軋糖，健康美味、年輕人也愛吃!",
    "hours": "null"
  },
  {
    "file": "12224662086.md",
    "title": "【嬰兒口水巾分享】寶寶口水巾推薦，各式口水巾、咬咬兜大評比，讓你不用花冤枉錢!",
    "hours": "null"
  },
  {
    "file": "12224692542.md",
    "title": "【寶寶玩具推薦清單】3~6個月寶寶玩具總整理，固齒器/布書/健力架/安撫巾/聲光音樂玩具分享！",
    "hours": "null"
  },
  {
    "file": "12224713596.md",
    "title": "【新北板橋美食】十三號咖哩，豬排咖哩飯香濃順口，還會附贈三樣小菜及熱湯!(近捷運江子翠站)",
    "hours": "週一~週五11：00~14：00；17：00~20：00，"
  },
  {
    "file": "12224720034.md",
    "title": "【新北板橋早午餐】懶豬三明治Lazy Pig Sandwich ，雙起司嫩蛋熱煎吐司超美味！(近捷運江子翠站)",
    "hours": "週二~週日6：30~15：30（週一公休）"
  },
  {
    "file": "12224732166.md",
    "title": "【新北板橋美食】錵饌 真·麵舖，紹興醉雞拌麵Q中帶勁，內用有免費紅茶可無限享用!(近捷運江子翠站)",
    "hours": "週一~週日11：00~14：00；16：30~20：30"
  },
  {
    "file": "12224738298.md",
    "title": "【台北牛肉麵】麵屋牛一雞骨牛肉麵，雞骨湯頭甘甜不油膩，份量加大不加價！(近捷運忠孝敦化站)",
    "hours": "週日~四12：00~21：00；週五~週六12：00~21：30"
  },
  {
    "file": "12224746962.md",
    "title": "【台南中西區民宿】久都和宅，穿日式浴衣拍照好過癮，還有檜木浴缸可泡澡，免出國就能體驗日本風情！",
    "hours": "null"
  },
  {
    "file": "12224766993.md",
    "title": "【婚鞋推薦】Ann'S手工婚鞋，平價完美婚鞋分享，價格$2000元有找~圓潤楦頭/6.5cm低跟/後跟立體蝴蝶結!",
    "hours": "null"
  },
  {
    "file": "12224775378.md",
    "title": "【台北中山區牛排】鬥牛士經典牛排(長安店)，美國紐約克牛排20oz大份量超飽足/飲料吧、濃湯可無限暢飲/每日現烤麵包可續加!",
    "hours": "[午餐]週一 - 週日 11:00-14:30"
  },
  {
    "file": "12224799882.md",
    "title": "【新竹竹東親子寵物友善餐廳推薦】卡菲努努景觀餐廳，近180度落地窗賞美景，提供育嬰室/兒童沙坑/餵小鹿吃牧草!(文末送優惠)",
    "hours": "週一~週日11:00-00:00"
  },
  {
    "file": "12224824947.md",
    "title": "【台北信義區蔬食餐酒館】BaganHood 蔬食餐酒館，享用異國蔬食料理，吃過後完全讓人愛上吃素~",
    "hours": "週一~週日11：30~16：00；17：00~22：00"
  },
  {
    "file": "12224825070.md",
    "title": "【新北板橋美食】双豚ラーメン，清湯醬油叉燒拉麵-滿滿肉量吃的好過癮，還可免費續麵一次!",
    "hours": "週一~週五17：00~22：00；"
  },
  {
    "file": "12224834259.md",
    "title": "【筆電後背包推薦】GASTON LUGA，隔層可放13-15吋筆電，背部防盜暗袋設計好貼心，上班上課、出國旅遊都適用!(文末送折扣碼)",
    "hours": "null"
  },
  {
    "file": "12224837835.md",
    "title": "【宜蘭礁溪景點】抹茶山-聖母山莊國家步道，登山路線/交通位置/注意事項，超完整攻略一次給你!",
    "hours": "null"
  },
  {
    "file": "12224840658.md",
    "title": "【宜蘭礁溪美食】礁溪甕窯雞(蘭陽礁溪總店)，宜蘭排隊名店甕窯雞，附設免費停車場!",
    "hours": "週一~週五9：00~22：00；週六日9：00~23：00"
  },
  {
    "file": "12224851383.md",
    "title": "【宜蘭霧眉推薦】淨Spa美容美體-專業紋繡中心，超自然微妝水霧眉，不用化妝就有好氣色!",
    "hours": "週一~週六10：00~20：00（週日公休）"
  },
  {
    "file": "12224864694.md",
    "title": "【超商美食開箱】味王大食客系列桶麵，泡菜海鮮湯麵好開胃，料理方便又美味！",
    "hours": "null"
  },
  {
    "file": "12224868133.md",
    "title": "【捷運南京三民居酒屋】饕酒窩居酒屋，30公分長的一夜干鯖魚必點，還能免費續杯氣泡水！",
    "hours": "18：00~00：00 (週日店休)"
  },
  {
    "file": "12224870159.md",
    "title": "【台北中山區美髮推薦】FIN Hair Salon，新髮色分享-蜂蜜奶茶棕，2020夏天必染髮色!",
    "hours": "週一~週六11:00~20:00；週日11:30~19:00"
  },
  {
    "file": "12224877589.md",
    "title": "【宜蘭礁溪二日遊懶人包】人氣景點/周邊美食/交通住宿，行程規劃一次提供給你，附完整路線圖！",
    "hours": "週一~週四上午8：00~10：00​"
  },
  {
    "file": "12224886283.md",
    "title": "【台北火鍋】紅九九個人鴛鴦鍋，老饕必點-秘制火焰牛五花，蜂巢豆腐吸收飽滿湯汁，鍋底、鴨血和豆腐可免費續加!",
    "hours": "週一~週日 11：30~23：00（22：00最後點餐）"
  },
  {
    "file": "12224894767.md",
    "title": "【捷運國父紀念館美食】沐朵MUDO 創意時尚輕食茶飲，網美打卡名店，各式場景都好好拍！(已停業)",
    "hours": "週一~週日 11:00~21:30"
  },
  {
    "file": "12224901227.md",
    "title": "【板橋燒烤吃到飽】久天日式炭燒烤肉吃到飽，美國安格斯黑牛、生蠔、天使紅蝦、美國大干貝通通任你吃，還有明治冰淇淋和飲料無限享用！",
    "hours": "中午11:30~凌晨2：00"
  },
  {
    "file": "12224908225.md",
    "title": "【新北淡水美食】兩餐두끼韓國年糕火鍋吃到飽，年糕火鍋、炒飯、泡麵及炸物無限量吃到飽，加價$139還有牽絲的雙色起司!",
    "hours": "週一~週日11：00~22：00(收客至20:30)"
  },
  {
    "file": "12224914711.md",
    "title": "【桃園大溪美食】安安食堂，日本家庭料理-咖哩飯/焗烤/漢堡排/烏龍麵/丼飯，白飯、鮮湯和檸檬水還能無限續!",
    "hours": "週一~週日11：00~14：00；16：30~20：30"
  },
  {
    "file": "12224922589.md",
    "title": "【台北西門早午餐】Dejia得嘉野餐廚房，必點章魚燒蛋餅，滿滿的柴魚片和美乃滋，完全無違和~還有美美的森林系用餐空間!(附完整菜單)",
    "hours": "週一~週日6：00~20：00"
  },
  {
    "file": "12224932571.md",
    "title": "【板橋燒烤吃到飽】燒肉王日式碳燒YAKINIKU烤肉吃到飽，美國和牛、北海道有卵干貝、手掌大汶萊藍鑽蝦吃到飽，還有韓國泡麵、炸物、私房手作奶蓋無限量供應！",
    "hours": "中午11:30 - 凌晨2:00"
  },
  {
    "file": "12224935979.md",
    "title": "【新北板橋美食】星馬廚房，泰式椒麻雞排飯酸甜又開胃，主餐均附星馬風味湯，平價料理也能吃得很飽足!(近捷運新埔站1號出口)",
    "hours": "週二~週日11：30~14：30；17：30~20：30​⠀"
  },
  {
    "file": "12224938807.md",
    "title": "【新北板橋美食】兩津號雞肉飯，每日新鮮製作的雞肉，肉質鮮嫩不乾柴，附完整菜單!(近捷運新埔站)",
    "hours": "11：00~14：30；16：00~20：30"
  },
  {
    "file": "12224940847.md",
    "title": "【新北板橋美食】丰禾日麗(板橋環球店)，各式經典台菜道道美味，必吃功夫芋泥雞，下次家庭聚餐就選這!",
    "hours": "週一~週日11：30~14：30；17：30~21：30"
  },
  {
    "file": "12224944963.md",
    "title": "【新北板橋美食】有間廚房健康蔬食，將素食與泰式料理做結合，價格平價又美味，近捷運江子翠站！",
    "hours": "週一~週日11：00~14：30；16：30~20：00"
  },
  {
    "file": "12224946877.md",
    "title": "【宜蘭頭城景點】蘭楊蟹莊，釣蝦池全程零藥物養殖，泰國蝦新鮮味美，還能體驗DIY烤蝦的樂趣!",
    "hours": "週一~週日9：00~19：30（週二公休）"
  },
  {
    "file": "12224951061.md",
    "title": "【宜蘭員山鄉美食】望龍埤鵝肉攤，鵝湯麵/鵝湯米粉/白飯吃到飽:每人只要$20元，菜色新鮮美味!(近望龍埤風景區)",
    "hours": "週一~週日11：00~19：00"
  },
  {
    "file": "12224954621.md",
    "title": "【新北板橋美食】姓胡鐵板燒，黑胡椒菲力牛排-肉質軟嫩新鮮，內用還有湯品、飲料可以無限續!",
    "hours": "週二~週日18：30~20：50（每週一、六公休）"
  },
  {
    "file": "12224962061.md",
    "title": "【台北士林IG打卡咖啡廳】T.ME Café，甜點每日手工現做，最愛肉桂司康~用餐環境夢幻又好拍，不限時＆免收服務費(近捷運士林站1號出口)",
    "hours": "週二~週六10:10-19:10；週日11:00-18:00（週一公休）"
  },
  {
    "file": "12224966911.md",
    "title": "【魚油推薦】大研德國頂級魚油軟膠囊，擁有含量最高的Omega3濃度84%，迷你膠囊易吞食，註冊還能免費拿購物金500元唷~",
    "hours": "null"
  },
  {
    "file": "12224971047.md",
    "title": "【台北車站冰品甜品】覓糖「黑糖粉粿」開封店，七彩粉粿以100%天然食材製作，粉粿軟Q冰涼又消暑!",
    "hours": "週一~週三12：00~20：00；週四~週六12：00~20：15（週日公休）"
  },
  {
    "file": "12224983575.md",
    "title": "【喜餅禮盒推薦】BONNE NUIT 晚安點心坊，手工餅乾&法式小點心純手工製作/無人工添加物/減糖20%，讓人吃得安心又健康！",
    "hours": "週二至週五 13:00~18:30 / 週六 11:00~17:00"
  },
  {
    "file": "12224989161.md",
    "title": "【南投仁愛鄉民宿】境‧星空，清境農場附近住宿，高山環繞、空氣清新，周圍機能也很方便！",
    "hours": "15:00-21:00 /\\_退房時間：11:00"
  },
  {
    "file": "12224990277.md",
    "title": "【林口下午茶】Mummum Pastry Studio，甜點精緻又美味，大推莓果天堂起司－乳酪濃郁卻不膩口!(已停業)",
    "hours": "週一~週日 11：00~19：00"
  },
  {
    "file": "12224991869.md",
    "title": "【新北板橋美食】浪人情歌，早餐時段就能吃到港式料理，最愛流沙西多士，豐富的奶皇讓口感更佳濕潤，近江子翠站1號出口!(附完整菜單)",
    "hours": "週一~週六9：00~20：00"
  },
  {
    "file": "12224994635.md",
    "title": "【宜蘭五結民宿】夏沐雷，異國鄉村風民宿，房間乾淨舒適，還有提供親手自製早餐!(近冬山河親水公園)",
    "hours": "null"
  },
  {
    "file": "12225007103.md",
    "title": "【新北板橋居酒屋】禾野坊日式居酒屋，各式串燒平價又美味，必點Prime級牛小排串!(近捷運新埔站；附完整菜單)",
    "hours": "週一~週日17：30~凌晨1：00"
  },
  {
    "file": "12225020743.md",
    "title": "【台北西門町冰品】淘汽小姐Naughty Lady，新上市韓國牛奶雪冰超綿密，極細雪花＆超濃奶霜，不用出國也能吃到～",
    "hours": "週日~週四12：00~20：00；週五六12：00~21：00"
  },
  {
    "file": "12225032704.md",
    "title": "【新北新莊咖哩】喜歡咖哩Love Curry，玫瑰花狀的蛋包咖哩飯，搭配牽絲起司超邪惡～還可免費加飯、加醬！",
    "hours": "週一~週日11：30~14：00；17：00~21：00（售完為止）"
  },
  {
    "file": "12225041265.md",
    "title": "【LINE多功能電子喜帖】拍拍印，選單直接回覆出席/宴客地點導航/線上看婚紗照/暖心推播功能，一手包辦你的婚禮大小事！",
    "hours": "null"
  },
  {
    "file": "12225045759.md",
    "title": "【台北士林餐酒館】時時Time's Eat，美味道地的歐洲料理，奶油野菇燉飯一吃愛上~(近捷運士林站;附菜單價格)",
    "hours": "週二~週日11：00~15：00；17：00~21：00（週一公休）"
  },
  {
    "file": "12225049611.md",
    "title": "【婚紗攝影】拍婚紗照不尷尬的23種拍照姿勢，拍婚紗照前必看;女生買對NuBra就能炸乳~",
    "hours": "週一~週日13：00~21：00（週三公休）"
  },
  {
    "file": "12225058447.md",
    "title": ">-",
    "hours": "週⽇～週四 18:00 – 02:00；週五、週六 18:00 – 03:00"
  },
  {
    "file": "12225064469.md",
    "title": "【台北西門町美食】泰獅泰式料理，跟50元硬幣一樣厚的月亮蝦餅，超有飽足感!!(捷運西門美食/台北泰式料理)",
    "hours": "週一~週日11：30~14：00；17：30~21：00"
  },
  {
    "file": "12225070125.md",
    "title": "【台北法式餐廳】PAUL法國麵包甜點沙龍(台北仁愛店)，享用豐盛的豪華晚餐，最愛主廚鄉野拼盤，再搭配紅酒超愜意!(附菜單)",
    "hours": "週一~週日8：00~20：30"
  },
  {
    "file": "12225077269.md",
    "title": "【新北板橋髮廊推薦】AZone髮廊，迎接秋冬來個霧感藍灰色，搭配閃耀鉑金護髮，整體造型超喜歡!(近捷運江子翠站；附價位)",
    "hours": "週一～週六11：00～20：00、週日11：00～19：00"
  },
  {
    "file": "12225083367.md",
    "title": "【新北板橋美食】東呷牛肉麵，湯頭帶有中藥味不死鹹，份量足夠能吃飽!(板橋牛肉麵/江子翠美食/新埔美食)",
    "hours": "週一~週六11：00~2：00；週日11：00~22：00​"
  },
  {
    "file": "12225088649.md",
    "title": "【台北天母火鍋】MI寶涮涮鍋，超狂的川味麻辣小龍蝦火鍋，將近20幾隻澳洲螯蝦，吃的超級滿足!(台北火鍋/士林美食/天母美食)",
    "hours": "週二~週日11：30~14：30；17：30~22：30（週一公休）"
  },
  {
    "file": "12225098633.md",
    "title": "【桃園龍潭美食】安安日式食堂，高CP值咖哩飯，新開幕-日本老闆手作的咖哩麵包買一送一!!(桃園美食/桃園咖哩飯)",
    "hours": "週一~週日11：00~14：00；17：00~20：00"
  },
  {
    "file": "12225100513.md",
    "title": "【新北板橋美食】小鮮肉創意湯包，六色湯包內餡鮮甜、咬下會爆汁，最愛起司&九層塔口味!(台北小籠湯包/板橋小籠湯包/捷運板橋美食)",
    "hours": "週一~週日11：30~21：00（週四公休）"
  },
  {
    "file": "12225111539.md",
    "title": "【新北板橋美食】無二亭拉麵，「豚骨拉麵」叉燒肉軟嫩至極，湯頭溫潤順口!(台北拉麵/板橋拉麵/捷運江子翠美食)",
    "hours": "週二17：30~20：30；週三~週日11：30~14：00；"
  },
  {
    "file": "12225118195.md",
    "title": "【南投仁愛鄉美食】清境阿東窯仔雞，酥脆外皮、肉嫩多汁，小碗雞油湯讓你沾個夠!(南投美食/南投甕窯雞/南投清境美食)",
    "hours": "週一~週日10：00~20：00"
  },
  {
    "file": "12225122883.md",
    "title": "【一歲寶寶玩具】兒童益智玩具-六面多功能手拍鼓，結合鋼琴按鍵/模擬電話/圖形配對/趣味串珠/轉動齒輪/手拍鼓面!",
    "hours": "null"
  },
  {
    "file": "12225127439.md",
    "title": "【新北板橋早午餐】Yuly早午餐吧 - Brunch&Coffee，價位親民、餐點內容豐富，最愛蘑菇起司歐姆蛋捲!(板橋美食/江子翠美食/台北早午餐)",
    "hours": "週二 - 週日 08:00-17:00"
  },
  {
    "file": "12225130285.md",
    "title": "【投資經濟學】買房後無存款30年後竟會比租房多600萬元資產，當你付房租時的那天就開始賠錢了是怎麼回事，細思極恐…該買房還是該租房？",
    "hours": "null"
  },
  {
    "file": "12225135213.md",
    "title": "【新北板橋美食】Ramen Ultra 奧特拉麵，雞骨濃熟白高湯超濃郁，麵條軟硬度、湯頭鹹度都可調整!(板橋車站美食/捷運板橋站美食/台北拉麵)",
    "hours": "星期一~五 11:00~21:00；星期六、日 10:00~21:00"
  },
  {
    "file": "12225137075.md",
    "title": "【桃園中壢景點】2020華泰名品城聖誕村，5大必拍耶誕場景，每日定時飄雪拍出偽出國感!(2020聖誕節活動/桃園景點一日遊/桃園打卡景點)",
    "hours": "09:30"
  },
  {
    "file": "12225140371.md",
    "title": "【桃園復興景點】翠墨莊園，熱氣球.日式鳥居造景拍出偽出國感，設有親子遊戲區!(桃園約會景點/桃園一日遊/桃園親子景點)",
    "hours": "週一~週日10:30–18:00（週二公休）"
  },
  {
    "file": "12225144783.md",
    "title": "【台北南港美食】爭厚厚切牛排-南港店，四人同享餐CP值超高，自助吧麵包、湯品和飲料可無限享用!(南港牛排/台北牛排/捷運南港站美食/南港車站美食)",
    "hours": "週一~週五11：00~15：00；17：00~22：00；"
  },
  {
    "file": "12225145971.md",
    "title": "【新北板橋賞屋心得】茂德建設-江南Star，捷運江子翠站8分鐘，超高坪效18-29坪2-3房!(生活機能/交通/建案基本資料分享)",
    "hours": "null"
  },
  {
    "file": "12225154195.md",
    "title": "【保健食品開箱】龜鹿茸益飲/鹿茸大棗飲/鹿茸機能性果凍，嚴選台灣國產鹿茸，鹿茸讓我好驚艷，趕緊開箱驗!",
    "hours": "null"
  },
  {
    "file": "12225160077.md",
    "title": ">-",
    "hours": "週一~週日10:00–16:00；17:00–21:00"
  },
  {
    "file": "12225166245.md",
    "title": "【新北淡水美食】MiNi廚房，平價又美味的義大利麵，內用還有飲料可無限暢飲!(淡江大學周邊美食/淡水義大利麵/捷運淡水美食)",
    "hours": "週一~週日11：30~14：00；17：30~20：00"
  },
  {
    "file": "12225169027.md",
    "title": "【新北板橋美食】江子翠麻油雞，綜合麻油雞配料豐富，湯頭鮮美不油膩，暖心又暖胃!(台北麻油雞/板橋麻油雞/江子翠美食)",
    "hours": "null"
  },
  {
    "file": "12225173417.md",
    "title": "【新北板橋美食】清心越南風味小館，價格平價.口味又道地，最愛越式煎餅，沾上魚露或酸辣醬更加分!(台北越南料理/板橋越南料理/捷運新埔站美食)",
    "hours": "週一~週日10：00~21：00"
  },
  {
    "file": "12225175841.md",
    "title": "【新北板橋美食】焣苑鍋物，主打個人鍋物開心吃，無收取服務費，還有泰國明果冰淇淋、飲料可無限享用!(台北火鍋/板橋火鍋/捷運新埔站美食)",
    "hours": "週一~週五11：30~22：30；週六日11：00~22：30"
  },
  {
    "file": "12225177237.md",
    "title": "【寶寶胎毛印章分享】慕璽 MOONSYNE，客製印鑑章超有質感，可選擇刻印字體/材質/印章形狀，包裝也超精美，送給寶貝獨一無二的紀念品！",
    "hours": "null"
  },
  {
    "file": "12225185957.md",
    "title": "【新北中和美食】双禾町鍋物，高cp值又平價的小火鍋，豪華龍蝦海陸雙人套餐，海鮮和肉類一次滿足!(台北火鍋/中和火鍋/捷運南勢角美食)",
    "hours": "週一~週日11：00~22：00"
  },
  {
    "file": "12225189555.md",
    "title": "【過年禮盒推薦】38熊蝶蝶酥，口感香酥、CP值超高，包裝還可客製化，新年送禮最佳選擇!(新年禮盒/過年伴手禮/宅配美食)",
    "hours": "週二-週日 11:00-21:00 週一公休(逢假日則營業)"
  },
  {
    "file": "12225195343.md",
    "title": "【臺灣創意茶包】一杯創意，鳥圖案茶包可黏貼於馬克杯，不怕茶包吊牌掉入杯中，讓人喝茶也有好心情!",
    "hours": "null"
  },
  {
    "file": "12225200561.md",
    "title": "【台北火鍋吃到飽】和牛涮日式鍋物放題(板橋文化店)，和牛火鍋/炙燒和牛壽司/和牛黑咖哩，三種吃法一次滿足!(板橋吃到飽/和牛吃到飽/板橋火鍋)",
    "hours": "週一～週四11:30～16:00 ；17:30～23:00 ；"
  },
  {
    "file": "12225201735.md",
    "title": "【台北合菜餐廳】一吃上癮祖傳甕缸雞，外皮酥脆、肉質鮮嫩，完全不用自己動手剝!(台北甕缸雞/忠孝敦化美食/台北東區餐廳)",
    "hours": "週二~週五17：00~01：00；"
  },
  {
    "file": "12225204205.md",
    "title": "【桃園復興景點】ZOO ZOO假期，超好拍的美式加州場景，享用披薩.炸物.飲品，無收取務費!(桃園美食/桃園下午茶/桃園打卡)",
    "hours": "週一、週三~週五11：00~18：00；"
  },
  {
    "file": "12225207439.md",
    "title": "【新北板橋美食】大碗公當歸羊肉，羊小排肉質軟嫩、無羊腥味，黑金滷肉飯也是必點之一!(板橋小吃/台北羊肉湯/台北滷肉飯)",
    "hours": "週一~週六 16：00~00：00（週日公休）"
  },
  {
    "file": "12225209395.md",
    "title": "【新北新莊火鍋】莊涮鍋物料理，巨無霸大肉盤份量十足，幾歲生日就送幾隻蝦，菜盤還可更換成肉盤!(台北火鍋/新莊美食/生日聚餐)",
    "hours": "週一~週日11：30~23：00"
  },
  {
    "file": "12225211913.md",
    "title": "【投資經濟學】買房之後該自住還是當包租公，如何運用通膨? 自住者的房地產的投資方式與報酬率解析!",
    "hours": "null"
  },
  {
    "file": "12225213219.md",
    "title": "【台北合菜餐廳】溢香園(天母店)，東坡肉肥而不膩、肉質細嫩，搭配刈包一起吃超讚!(台北美食/士林美食/天母餐廳推薦)",
    "hours": "週一~週日11：00~14：00；17：00~21：00"
  },
  {
    "file": "12225220027.md",
    "title": "【新北板橋美食】樂翔港式飲茶，好吃又平價的港點，不收取服務費和茶資!(台北港式飲茶/板橋港式料理/江子翠美食)",
    "hours": "週一~週日11：00~14：00；17：00~21：：00（週三公休）"
  },
  {
    "file": "12225224535.md",
    "title": "【新北板橋住宿】傑仕堡商旅板橋館，免費湯屋可泡湯，房間乾淨舒適!(近捷運板橋站;附免費早餐)",
    "hours": "下午3:00；退房時間：中午12:00"
  },
  {
    "file": "12225228883.md",
    "title": "【宜蘭冬山景點】伊格魯童話森林，5大必拍場景，就像走進童話森林國度！(宜蘭最新景點/宜蘭一日遊/宜蘭打卡)",
    "hours": "10:30~17:00(每週二.三公休)"
  },
  {
    "file": "12225231549.md",
    "title": "【台北牛排餐廳】教父牛排，推薦美國頂級乾式熟成肋眼牛排，完全將牛肉的精華鎖住，用餐氣氛100%，情人節約會就來這!(台北生日餐廳/情人節約會餐廳/慶生餐廳)",
    "hours": "週六 - 週日 11:30-15:30；週一 - 週五 12:00-15:00；"
  },
  {
    "file": "12225234341.md",
    "title": "【宜蘭親子民宿推薦】麗筑藝術親子民宿，親子房溜滑梯設計，設有兒童遊戲間/開放式廚房/陽台空間，附免費早餐!(交通位置.房型介紹.房價資訊)",
    "hours": "下午3:00；退房時間：上午11:00"
  },
  {
    "file": "12225243459.md",
    "title": "【線上英文課程】Native Camp，365天24小時立即上課，7天不限次數免費試上，不用出門就能學英文囉!(上課方式&課程教材&費用)",
    "hours": "全年365天24小時在線即可立即上課。"
  },
  {
    "file": "12225249127.md",
    "title": "【婚禮活動】拍拍印使用心得，上傳照片即拍即印，結合主題式抽獎/電子喜帖/婚禮出席統計，用LINE就能輕鬆操作!(操作方式&現場服務)",
    "hours": "null"
  },
  {
    "file": "12225251865.md",
    "title": "【台北產後護理之家推薦】令和產後護理之家參觀心得，全新獨棟月子中心，寶寶由全護理師照護超安心!(近捷運東門站;房型介紹/環境特色/令和月子餐)",
    "hours": "上午10：00~晚上19：30"
  },
  {
    "file": "12225257089.md",
    "title": "【桃園賞櫻景點】拉拉山恩愛農場-2021/2/24最新花況、景點交通一次告訴你!(必拍場景.交通方式.櫻花拍攝照分享)",
    "hours": "週一～週日08:00～20:00"
  },
  {
    "file": "12225259261.md",
    "title": "【新莊火鍋】覺醒 幸福。鍋物，火鍋湯頭多樣化，最愛藥膳湯底，白飯、冰淇淋和飲料可無限享用!(附完整菜單)",
    "hours": "週日~週四11：00~22：30；週五11：30~23：45；週六11：30~23：00"
  },
  {
    "file": "12225259311.md",
    "title": "2022宜蘭IG打卡點，網美景點.情侶約會.休閒農場.湯屋推薦，以及宜蘭美食&民宿，收拾好行李就能出發囉!",
    "hours": "null"
  },
  {
    "file": "12225261489.md",
    "title": "【新北板橋早午餐】HERDOR Near 禾多靜巷，餐點新鮮好吃無雷，3D互動牆好好拍!(交通位置&菜單價位&餐點表現)",
    "hours": "週二~週日11：00~21：00（週一公休）"
  },
  {
    "file": "12225262455.md",
    "title": "【新北板橋美食】龍囍茶檔，港點多達16種，推薦干炒牛河.叉燒包.蝦仁燒賣，價格平實.無收取服務費!(近捷運板橋站；附菜單)",
    "hours": "週一~週日11：30~15：00；17：00~22：00"
  },
  {
    "file": "12225263177.md",
    "title": "【台北婚紗推薦】蓓拉米婚禮婚紗BELLA MIA，服務親切、不強迫推銷，禮服、婚紗攝影、婚禮紀錄和新秘全部包辦！（板橋婚紗/台北婚紗攝影/台北新娘秘書）",
    "hours": "週一~週日13：00~21：00（週三公休）"
  },
  {
    "file": "12225278719.md",
    "title": ">-",
    "hours": "週一~週日12：30~20：00"
  },
  {
    "file": "12225282953.md",
    "title": "【新北板橋下午茶】桂舍Kuei Fleur，結合花藝教室與咖啡廳，用餐空間瀰漫乾燥花香氣，甜點必吃肉桂捲，來這放鬆很可以!(板橋不限時咖啡廳；附菜單價位)",
    "hours": "週一~週五13：00~22：00；週六日12：00~22：00。"
  },
  {
    "file": "12225292025.md",
    "title": "【板橋火鍋吃到飽】現煮食 麻辣鴛鴦火鍋吃到飽，美國PRIME板腱牛、手掌大天使紅蝦、大干貝隨你吃，還有韓國泡麵、明治冰淇淋、蛋糕甜點及飲料可無限享用!",
    "hours": "週一~週日上午11:30 - 晚上12點"
  },
  {
    "file": "12225304415.md",
    "title": "【新北板橋證件照】Ohmo Studio奧莫照相館，拍攝專業、韓式妝髮超用心，還可選擇背景布幕顏色，7天內即可取件!(台北證件照;附價位)",
    "hours": "週一~週日12：30~20：30（週三公休）"
  },
  {
    "file": "12225305859.md",
    "title": "【新北板橋早午餐】Ivy輕食廚房，用餐環境優美、食材新鮮多變化，無收取服務費~(近捷運江子翠站;附菜單)",
    "hours": "週一~週日8：00~18：00"
  },
  {
    "file": "12225307315.md",
    "title": "【台北士林咖啡廳】Old soul 老靈魂，超可愛糖霜美式軟餅乾，純白韓系裝潢也超好拍！(近捷運劍潭站;附菜單價位)",
    "hours": "週一~週日11:30~22:00"
  },
  {
    "file": "12225309859.md",
    "title": "【新北板橋美食】初原麵場(新板特區店)，平價日式拉麵，個人最愛焙煎雞白湯拉麵，叉燒入口即化、湯頭順口不油膩!(附菜單價位)",
    "hours": "週一~週三18：00~00：00；週五17：00~00：00；"
  },
  {
    "file": "12225311085.md",
    "title": "【萬里最新景點】抹茶小山丘，一層層的抹茶小山丘療癒又好拍，拍完還能到附近吃海鮮!(附交通位置)",
    "hours": "null"
  },
  {
    "file": "12225351749.md",
    "title": "【新北板橋美食】勁呷韓定食精緻韓式嫩豆腐煲專賣店，韓式豆腐煲/石鍋拌飯/海鮮煎餅 /辣炒年糕，最愛頂級CAB帶骨牛小排!(附菜單)",
    "hours": "週一~週日11：30~14：30；17：00~21：30(週一公休)"
  },
  {
    "file": "12225365821.md",
    "title": "【台北天母美食】窩 創作和食，日本人開的日式家常料理，餐點製作用心又美味，防疫便當外送和外帶都享有88折!(附菜單價位)",
    "hours": "週二~週日11:30-14:30；17:30-23:30（週一公休）"
  },
  {
    "file": "12225374405.md",
    "title": "【書籍分享】致富心態:財富的價值與你的需求相關，幸福只是扣除期望後得到的結果",
    "hours": "null"
  },
  {
    "file": "12225384527.md",
    "title": "【花蓮海景民宿】微藍海岸旅宿，海景雙人房景觀超放鬆，24h自助吧檯多種餅乾和飲料，走5分鐘就是東大門夜市!​(地理位置/房型介紹/價位)",
    "hours": "15:00-20:00；退房時間：11:00​。"
  },
  {
    "file": "12225423001.md",
    "title": "【板橋染髮推薦】AZONE髮廊，抹茶綠+森林綠髮色，搭配閃耀鉑金護髮，蹦出全新髮型!(附2021價位)",
    "hours": "週一～週六11：00～20：00、週日11：00～19：00"
  },
  {
    "file": "12225512941.md",
    "title": "【2022花蓮台東三天兩夜】三日遊路線規劃+IG最新打卡景點+海景民宿推薦，放假來個擁抱大海的花東之旅吧！",
    "hours": "09:00-18:00​。"
  },
  {
    "file": "12225523923.md",
    "title": "【新莊早餐推薦】歡喜吐司，熱壓古巴風三明治滿到爆出來，激推蔥蔬起司蛋餅，捷運新莊副都心站!(附菜單)",
    "hours": "週一~週五6：00~13：00；週六日7：00~14：00。"
  },
  {
    "file": "12225561680.md",
    "title": "【新北板橋居酒屋】參堂居酒屋，必點鹽烤牛小排、明太子山藥及鹽烤中卷，營業時間到凌晨1:30，下班聚餐小酌好去處！(附菜單價位/近捷運江子翠站)",
    "hours": "週一~週日18:00-01:30"
  },
  {
    "file": "12225575741.md",
    "title": "【台北東區餐廳】ChiaoDuo House巧哚洋房，每道餐點精緻道地，義式鄉村風用餐環境，適合納入約會餐廳!（台北生日餐廳/情人節約會餐廳）",
    "hours": "週二~週五 17：30~23：30；"
  },
  {
    "file": "12225597389.md",
    "title": "【台北中山區染髮推薦】FIN Hair Salon 秋冬質感霧藍紫色，短髮這樣染也好看!(附2021最新價目表)",
    "hours": "週一~週六11:30~20:00；週日11:30~19:00。"
  },
  {
    "file": "12225613967.md",
    "title": "【新北三重早餐推薦】 最愛花生雞腿排蛋吐司，薯餅起司蛋餅也很必點，用料實在、價格平實，附最新菜單!!",
    "hours": "週一~週五6：00~12：30；週六日6：00~13：00。"
  },
  {
    "file": "12225695045.md",
    "title": "【2022過年禮盒推薦】上信饌玉新春禮盒，堅果點心不用$600元CP值超高，最愛夏威夷潛艇和南棗核桃糕，新年送禮最佳首選!",
    "hours": "null"
  },
  {
    "file": "12225709190.md",
    "title": "【台北車站手搖飲料推薦】茶聚(台北長安店)，新品 「沐嵐咖啡凍奶茶 」咖啡香氣迷人，與奶茶完美融合不甜膩，加上奶酪更有層次！",
    "hours": "週一~週日10:30~20:30"
  },
  {
    "file": "12225716633.md",
    "title": "【投資經濟學】美股 TQQQ VS QQQ 回測",
    "hours": "null"
  },
  {
    "file": "12225720074.md",
    "title": "【Learning】C++ learning of leetcode (Updating)",
    "hours": "null"
  },
  {
    "file": "12225730583.md",
    "title": "【2022銀耳禮盒推薦】光茵樂活，吃得到飽滿滑溜溜的銀耳，低糖低熱量又有飽足感，即開即飲超方便，送禮最佳新選擇！",
    "hours": "null"
  },
  {
    "file": "12225757358.md",
    "title": "【NFT製作教學】5分鐘5個步驟就能製作屬於自己的NFT頭像！",
    "hours": "null"
  },
  {
    "file": "12225758468.md",
    "title": "【2022台北聚餐必吃】8家新年團圓飯、母親節、父親節聚餐餐廳推薦，台菜餐廳/廣式片皮鴨/砂鍋土雞湯/台北甕缸雞，長輩聚餐就來這!!",
    "hours": "null"
  },
  {
    "file": "12225772880.md",
    "title": "【台北東區火鍋吃到飽】本事滿足鍋物，爆量黃金蜆鍋太狂啦！滿滿的黃金蜆吃得超過癮，還有肉品、火鍋料、飲料及冰品吃到飽~當月壽星再贈送超澎湃海鮮盤一份！",
    "hours": "週一~週日17：00~23：00"
  },
  {
    "file": "12225781448.md",
    "title": "過年走春景點推薦，北中南20個走春出遊攻略！(台北景點/台中景點/彰化景點/台南景點/花蓮景點)",
    "hours": "11:30 ~ 20:30 (週一~週二休園)"
  },
  {
    "file": "12225809258.md",
    "title": "【宜蘭蘭城晶英烤鴨】紅樓中餐廳，一鴨五吃超經典，最愛櫻桃鴨握壽司!(附最新菜單.餐點表現)",
    "hours": "週一~週日11:00–15:00；17:00–21:00​。"
  },
  {
    "file": "12225832109.md",
    "title": "【宜蘭五結民宿推薦】晴川禾悅Villa，日式北歐清新裝潢超喜歡，最愛玻璃天幕浴缸，還有多種玩具和桌遊可以玩!",
    "hours": "15:00-22:00；退房時間：11:00前​"
  },
  {
    "file": "12225842849.md",
    "title": "【新北板橋早午餐推薦】HOUJIA 厚夾吐司，厚夾吐司堡口味多種，最愛「厚蛋鮪魚吐司堡」，口感柔軟超好吃!（近捷運新埔站，致理科大對面）",
    "hours": "週一~週日7：00~15：00"
  },
  {
    "file": "12225845837.md",
    "title": "【手工訂製滴雞精推薦】鄉奔奔滴雞精，原味溫潤無腥味，味道不油膩好好喝，加熱後隨撕即飲超級方便!",
    "hours": "null"
  },
  {
    "file": "12225853484.md",
    "title": "【台北大安區麻辣鍋】史大華精緻鴛鴦鍋，麻辣湯頭溫潤、麻而不辣，滿滿的鴨血和豆腐超過癮，豆腐和白菜還能免費續加，火鍋控必吃!(近捷運六張犁站)",
    "hours": "營業時間是週一到週日17:00-24:00（10:30最後點餐）"
  },
  {
    "file": "12225864614.md",
    "title": ">-",
    "hours": "null"
  },
  {
    "file": "12225865193.md",
    "title": "UVM Interview Questions",
    "hours": "null"
  },
  {
    "file": "12225865262.md",
    "title": "System Verilog Interview Questions",
    "hours": "null"
  },
  {
    "file": "12225879956.md",
    "title": ">-",
    "hours": "週一~週日9：30~17：00"
  },
  {
    "file": "12225888749.md",
    "title": "【魚油推薦】大研生醫EPA 80%快樂魚油軟膠囊，市售第一支80% rTG EPA 心靈保養魚油，迷你膠囊易吞嚥，一天3顆輕鬆轉換好心情~",
    "hours": "null"
  },
  {
    "file": "12225906299.md",
    "title": "【不沾鍋推薦】COTD品牌美型白玉珍珠不沾鍋，天然陶瓷不沾好清洗，適用各種爐具~北歐色系質感升級，讓煮飯跟穿搭一樣快樂！",
    "hours": "null"
  },
  {
    "file": "12225924365.md",
    "title": "台北大安火鍋推薦｜二本松涮涮屋：活波士頓龍蝦超鮮、專人桌邊服務超貼心！約會聚餐首選",
    "hours": "週一~週日11：00~14：30；17：30~22：30（週二公休）"
  },
  {
    "file": "12225932834.md",
    "title": "愛他美好嗎？成分、益處及愛他美評價分享，二寶媽的配方奶挑選心得",
    "hours": "null"
  },
  {
    "file": "12225937007.md",
    "title": ">-",
    "hours": "null"
  },
  {
    "file": "12225944258.md",
    "title": "【淡水老街美食】丸啤吧，魚酥搭配酸梅湯蹦出新滋味，魚丸湯還可自由搭配魚丸.湯品和配料，獨特創意吃法超吸晴!(淡水美食/捷運淡水站美食/淡水景點)",
    "hours": "週一11：00~20：00；週二1：00~17：00；週三~週五11：00~20：00；週六日11：00~20：30。"
  },
  {
    "file": "12225952037.md",
    "title": ">-",
    "hours": "週一~週日11：00~13：30；17：00~20：00。"
  },
  {
    "file": "12225963608.md",
    "title": "【台北義式餐廳推薦】Caciopasta卡喬義式餐廳，義大利麵CP值超高，濃郁十足的「茄汁嫩雞胸細圓麵」很迷人，大份量木碗沙拉也很必點喔！ (附最新菜單)",
    "hours": "週一~週五11：00~21：00；週六9：30~17：30（週日公休）。"
  },
  {
    "file": "12225972857.md",
    "title": "【益生菌推薦】大研生醫「舒敏益生菌膠囊」，嚴選5種國際文獻實證益生菌，添加300億菌數，幫全家人調整體質增加保護力!",
    "hours": "null"
  },
  {
    "file": "12225993887.md",
    "title": "【苗栗景點二日遊】紫色薰衣草花海、哈比小鎮、高架草莓園，以及網美最愛的球池咖啡廳，約會景點好去處，一起置身在夢幻美景裡吧！",
    "hours": "9:00~17:30(每週二三公休)​。"
  },
  {
    "file": "12225998360.md",
    "title": "【台北中山區餐酒館】大亨餐酒館 Rich Restaurant，餐點精緻美味，大推「油封鴨腿牛肝菌燉飯」，當月壽星還會贈送蛋糕一份哦!",
    "hours": "11：30~14：00；17：30~22：00。"
  },
  {
    "file": "12226006379.md",
    "title": "【淡水老街小吃推薦】萃年華滷味(淡水老街店)，必嚐超入味豆干、肉質紮實帶有煙燻香的鴨翅，加辣吃更過癮喔!（交通位置、必點品項及餐點口味）",
    "hours": "週五六日11：30~19：30(實際營業時間可關注FB粉專)"
  },
  {
    "file": "12226021157.md",
    "title": "【宅配下午茶點心推薦】上信饌玉新口味「抹茶薄燒」、「起司紅椒餅」來了!還有4款義式脆餅新包裝同步上市， 好喜歡香脆微甜的可可義式脆餅， 在家就能直接訂來吃！",
    "hours": "null"
  },
  {
    "file": "12226031018.md",
    "title": "褲型尿布推薦｜幫寶適清新幫拉拉褲，超薄吸收芯，快速吸收不反滲，媽媽社團狂推的育兒好物，幫寶適清新幫全新上市，L~XXXL尺寸都有！",
    "hours": "null"
  },
  {
    "file": "12226056245.md",
    "title": "孕婦保養品怎麼挑?2024七款妊娠霜評比大公開！",
    "hours": "null"
  },
  {
    "file": "12226071686.md",
    "title": "瘋狂賣客 Crazymike | 蝦皮直播，邊看直播邊下單超方便~還能快速到貨!",
    "hours": "null"
  },
  {
    "file": "12226116811.md",
    "title": "【新莊室內親子樂園】貝兒絲樂園(新莊旗艦館)，700坪大空間多達50個遊樂區玩不膩，遊玩3小時還有飲料.餅乾可無限享用！（已歇業）",
    "hours": "週一~週日11：00 – 21：00。"
  },
  {
    "file": "12226133137.md",
    "title": "【桃園中壢咖啡廳推薦】渺渺 café，韓系純白裝潢超好拍，甜點最愛檸檬司康!(附菜單價位)",
    "hours": "週一~週日11：00~19：00（週三公休）。"
  },
  {
    "file": "12226137790.md",
    "title": "【桃園住宿】桃園大溪笠復威斯汀度假酒店，酒店設施活動、房型介紹及入住經驗分享!",
    "hours": "9:30 – 21:00 (最後預約：20:00)"
  },
  {
    "file": "12226194184.md",
    "title": "【電動擠乳器推薦】Hegen舒芙蕾多功能雙邊電動擠乳器評價 | 實際使用心得",
    "hours": "null"
  },
  {
    "file": "12226202407.md",
    "title": "【板橋冰品推薦】肩併肩日式冰品屋，日式刨冰好拍又好吃，泰奶口味的小圓鬆餅也很欠吃~(附菜單價位)",
    "hours": "週二~週日12：30~21：00 (每週一公休)"
  },
  {
    "file": "12226251100.md",
    "title": "IDÉE LIVING 伊德生活，水洗抑菌茶眠被，商品外觀、功能及使用心得分享!",
    "hours": "null"
  },
  {
    "file": "12226261957.md",
    "title": "Google超過2000個五星評價的天天清潔，過年大掃除推薦！！將任何縫隙都清得超乾淨，居家清潔推薦天天清潔！（服務價位、服務流程及清潔過程）",
    "hours": "null"
  },
  {
    "file": "12226275334.md",
    "title": "全台唯一自產自銷的「高圓清燕窩」，口感絲滑無腥味，搭配專屬燉鍋燉煮，保留最完整的營養！禮盒介紹、燉煮方式及實際口感分享！",
    "hours": "null"
  },
  {
    "file": "12226283662.md",
    "title": "【2023新春禮盒推薦】上信饌玉四款人氣禮盒開箱，景天禮盒CP值好高，不用$800元就能吃到各式堅果點心!",
    "hours": "null"
  },
  {
    "file": "12226293721.md",
    "title": "「光茵樂活」新口味-膠原奶茶鮮銀耳，熱量竟然不到100卡!!低糖好喝不甜膩~濃郁順口的奶茶，搭配滑順Q彈的鮮銀耳很可以~~",
    "hours": "null"
  },
  {
    "file": "12226297012.md",
    "title": "【台北天母景觀餐廳】鬼店阿水的家，品嚐自產現採鮮蔬、欣賞台北景色，必點老闆熬煮的花果茶，還能到後院探鬼抓鬼喔！(附菜單價位)",
    "hours": "週一~週日10：30~22：00（晚上20：00後不再接待入場）"
  },
  {
    "file": "12226302211.md",
    "title": "【桃園異國咖啡廳】Abbraccio 抱抱義大利，法式鄉村風環境好好拍，坐在室外吹風享用餐點很愜意，放假就來趟偽出國旅行吧!",
    "hours": "週五~週日10：00~16：00。"
  },
  {
    "file": "12226313518.md",
    "title": "【奶瓶清潔劑推薦】這罐去汙力超強！完全可以替代洗碗精│小獅王辛巴高分解酵素奶瓶清潔劑",
    "hours": "null"
  },
  {
    "file": "12226324915.md",
    "title": "【新北板橋美食】吾時•食5 10 10 牛肉麵，清燉牛肉麵湯頭鮮甜.牛肉嫩口，滷味必點醬燒阮心肝，一咬下去就爆汁!!(附菜單價位)",
    "hours": "週一~週六11：00~14：00、17：00~20：00（週日公休）"
  },
  {
    "file": "12226339843.md",
    "title": "【消化道保健推薦】吃太多難消化？飯後一包保衛君，幫助消化、維持消化道機能~",
    "hours": "null"
  },
  {
    "file": "12226354762.md",
    "title": "【板橋美食推薦】暖男炸雞(板橋店)，焦糖炸雞配上獨門秘醬和天然椒鹽粉，簡直太過癮了!(附菜單價位)",
    "hours": "15:00-23:30"
  },
  {
    "file": "12226380106.md",
    "title": "2023櫻花季，三峽大熊櫻花林的三色櫻大爆開啦!!傍晚還會點燈可欣賞夜櫻喔~(最新賞櫻花況、開放時間、美拍分享)",
    "hours": "早上7：00~19：00"
  },
  {
    "file": "12226402240.md",
    "title": "【台中雞腳凍推薦】黑竹園雞腳凍，40年老滷汁入味過癮，冰鎮滷味鹹香又濃郁~當作宵夜和下酒菜很可以！",
    "hours": "07：00am~22：00pm"
  },
  {
    "file": "12226402261.md",
    "title": "【台北古亭咖啡廳】籽籽糖 LittleSeed，平價又美味的甜點在這，大推黑糖肉桂捲/英式司康，還有超好拍的韓系店門口！",
    "hours": "週三~週六11：00~20：00；週日11：00~18：00"
  },
  {
    "file": "12226411408.md",
    "title": "【嬰兒車推薦】嬰兒車綜合評比，讓你選擇最好的嬰兒車：大人和小孩都會喜歡的產品指南！",
    "hours": "null"
  },
  {
    "file": "12226416913.md",
    "title": "【深談】谷歌(Google)的整合服務是擊敗Chat GBT的唯一出路",
    "hours": "null"
  },
  {
    "file": "12226421263.md",
    "title": "【台中住宿推薦】「葉綠宿-川閱」清新簡約風格，四人房空間大又舒適，還有獨立浴缸泡澡好享受~近台中火車站及綠川親水河岸!",
    "hours": "null"
  },
  {
    "file": "12226424749.md",
    "title": "【募款】江子翠道路拓寬募款活動，一起使重劃區交通順暢！",
    "hours": "null"
  },
  {
    "file": "12226426366.md",
    "title": "【部落客兩隻小豬】美食/旅遊/親子/開箱（合作經驗/邀約來信）",
    "hours": "2015年~2025年約9年左右類型：美食、旅遊、開箱、親子總瀏覽數：2017萬（截至2025年5月14日）  合作經驗我們曾與多家餐廳、品牌及旅宿業者合作，進行食記撰寫、產品開箱、社群宣傳等多元合作，合作對象包括：餐廳：柒串燒屋、暖男炸雞、吾時•食5 10 10 牛肉麵、久留米日本咖哩、萃年華滷味等。品牌：飛利浦、黑竹園雞腳凍、光茵樂活、上信饌玉、保衛君等。旅宿：葉綠宿川閱、南投境‧星空、三星白宮、台中葉綠宿旅館等。我們的合作方式多元，能夠根據合作夥伴的需求，提供量身訂做的宣傳方案。   曾獲得的獎項有：  痞客邦 熱門文章                  媒體平台我們經營多個社群平台，擁有穩定且活躍的粉絲群：▪ 痞客邦：兩隻小豬▪ FB粉絲專頁：兩隻小豬 ▪ IG：twopiggyhavefun▪ 窩客島：https://reurl.cc/mllDp7▪ 愛食記：https://reurl.cc/V88LmY          ▪ youtube頻道：https://bit.ly/2WVAd0T ▪ Popdaily創作者計畫：https://bit.ly/2QVjZRM%20▪ 媽咪拜：https://reurl.cc/x1VDW5我們內容涵蓋美食、旅遊、親子生活、產品開箱等多元主題，能夠觸及廣泛的受眾群體。   聯絡我們若您對合作有興趣，歡迎透過以下方式與我們聯繫：▪ 電子郵件：twopiggyhavefun@gmail.com▪ Facebook粉絲專頁：兩隻小豬▪ Instagram：@twopiggyhavefun我們期待與您攜手合作，共同創造更多精彩內容！  大家好，我們是「兩隻小豬」──朱朱與小豬，一對熱愛美食與旅遊的夫妻檔。自2015年起，主要分享在地美食、親子生活、旅遊景點及產品開箱等多元內容，至今已累積超過700篇文章，總瀏覽量突破2,000萬人次。文章風格著重於實用性與細緻描寫，提供餐點口感、餐廳資訊、交通方式等詳細內容，幫助讀者輕鬆規劃行程。拍攝方面，我們使用FUJIFILM X-T30相機，搭配自然光線與構圖技巧，呈現高品質的視覺效果。 關於我們部落格名稱：兩隻小豬經營時間：2015年~2025年約9年左右類型：美食、旅遊、開箱、親子總瀏覽數：2017萬（截至2025年5月14日）  合作經驗我們曾與多家餐廳、品牌及旅宿業者合作，進行食記撰寫、產品開箱、社群宣傳等多元合作，合作對象包括：餐廳：柒串燒屋、暖男炸雞、吾時•食5 10 10 牛肉麵、久留米日本咖哩、萃年華滷味等。品牌：飛利浦、黑竹園雞腳凍、光茵樂活、上信饌玉、保衛君等。旅宿：葉綠宿川閱、南投境‧星空、三星白宮、台中葉綠宿旅館等。我們的合作方式多元，能夠根據合作夥伴的需求，提供量身訂做的宣傳方案。   曾獲得的獎項有：  痞客邦 熱門文章                  媒體平台我們經營多個社群平台，擁有穩定且活躍的粉絲群：▪ 痞客邦：兩隻小豬▪ FB粉絲專頁：兩隻小豬 ▪ IG：twopiggyhavefun▪ 窩客島：https://reurl.cc/mllDp7▪ 愛食記：https://reurl.cc/V88LmY          ▪ youtube頻道：https://bit.ly/2WVAd0T ▪ Popdaily創作者計畫：https://bit.ly/2QVjZRM%20▪ 媽咪拜：https://reurl.cc/x1VDW5我們內容涵蓋美食、旅遊、親子生活、產品開箱等多元主題，能夠觸及廣泛的受眾群體。   聯絡我們若您對合作有興趣，歡迎透過以下方式與我們聯繫：▪ 電子郵件：twopiggyhavefun@gmail.com▪ Facebook粉絲專頁：兩隻小豬▪ Instagram：@twopiggyhavefun我們期待與您攜手合作，共同創造更多精彩內容！  暱稱：兩隻小豬分類：美食情報好友：累積中地區：【頂級鐵板燒推薦】阪前鐵板燒 台北安和店，主餐升級、秋冬新菜實際心得桃園大溪餐廳｜南法玫瑰莊園，森林系玻璃屋超好拍，餐點表現意外不錯2026 六款膠原蛋白品牌評比｜最推薦BEAUTY CLUB 分時保養雙胜肽膠原蛋白實測心得新北中和美食：金春喜韓廚｜小菜免費續，豬肉湯飯超暖胃！【愛康LAMORCOM】孅女養成計禮盒 | 三款機能軟糖組：孅女QQ/好星情/小姐好辣S2025香港一日遊行程｜旺角吃吃逛逛、美拍訊號山花園、買人氣伴手禮曲奇餅乾超滿足台北士林親子餐廳｜甲蟲秘境親子&寵物友善餐廳，附遊戲區、甲蟲導覽體驗，必吃甲蟲鬆餅！【好物分享】Sudio F5 Pro｜聚焦好聲音的可攜式藍牙音響全家人都適用！提升食慾、增強體力，專家醫師都推薦的3款「鋅」營養品新北中和雞湯｜享雞湯風味雞湯專賣店，暖胃雞湯＋澎湃套餐分享(13,501)*台北西門*【日藥本舖博物館】免費參觀，日本昭和時期藥妝街懷舊場景(272,706)【捷運龍山寺站美食】艋舺夜市小吃推薦，21間必吃小吃~2023.01月更新!(萬華美食/廣州街/華西街夜市美食)(98,729)【桃園中壢美食】泰多蝦流水道夾蝦場，LED流水道「泰國流水蝦」吃到飽，蝦子肥美新鮮還有蝦膏!!(41,236)【捷運公館美食】新馬辣經典鴛鴦鍋-公館店，13種頂級肉片&阿根廷天使紅蝦吃到飽，以及16種哈根達斯口味任你吃!(29,607)【新北淡水美食】正莊古早味好吃雞肉店，雞腿肉質鮮嫩不乾柴，點便當免費送當歸雞清湯！(40,022)【新北淡水美食】牛Bar(淡海店)，鍋物均一價$189元，白飯、濃湯、爆米花、明治冰淇淋、飲料及冰沙都是無限供應！(12,720)【台北中山火鍋】鐤極宴-鍋料理，波士頓龍蝦肉質細緻鮮甜，還有美味蝦膏粥可品嘗！（附完整菜單）(21,399)愛他美好嗎？成分、益處及愛他美評價分享，二寶媽的配方奶挑選心得(15,697)【貓空景觀餐廳】貓空四爺，宮廷風小包廂用餐品茶，裝潢古色古香、獨立式包廂夜景超優，金字塔茶炒飯必吃！(22,236)【板橋燒肉推薦】發肉燒肉餐酒板橋三店，人氣干貝漢堡必點，特選牛五花脆口多汁，竟然還能吃到炸雞佛～生日壽星超驚喜！（捷運府中站美食） 國內美食 (15)台北美食 (214)新北市美食 (137)基隆美食 (2)桃園美食 (17)新竹美食 (6)苗栗美食 (6)台中美食 (6)南投美食 (1)彰化美食 (1)台南美食 (9)雲林美食 (1)宜蘭美食 (26)花蓮美食 (2)台東美食 (1)甜點分享 (8) 國內旅遊 (13)新北市景點 (22)台北景點 (24)基隆景點 (3)宜蘭景點 (40)新竹景點 (6)桃園景點 (21)苗栗景點 (6)台中景點 (6)彰化景點 (3)台南景點 (13)花蓮景點 (3)征服小百岳全紀錄 (6)展覽 (2) 國內住宿 (11)烏來住宿 (1)基隆住宿 (1)板橋住宿 (1)桃園住宿 (1)宜蘭住宿 (13)花蓮住宿 (1)台南住宿 (3)台中住宿 (2)南投住宿 (1)彰化住宿 (1)台東住宿 (1) 國外旅遊 (5)2025香港自由行 (1)2016年4月-香港.澳門員工旅遊 (0)2025沖繩親子自由行 (1)2019年2月-日本北海道跟團遊 (0)2019年5月-中國湖北 (1) 時尚流行 (3)包款推薦 (3)鞋款/手錶推薦 (3)美容美髮 (12) 開箱 (6)滋補養身食品 (11)宅配伴手禮 (25)保健食品 (10)居家好物 (4)孕媽咪日記 (1)鍋具 (1) 親子育兒 (2)月子中心推薦 (2)育兒好物 (14) 婚禮大小事 (2)婚禮活動 (2)婚紗攝影 (2) 生活綜合 (7)懶人減肥法 (2)居家生活 (2)英文線上課程 (1)韓式照相館 (1)數位生活 (5)創作 (4)食譜分享 (5) 股票投資/房地產 (2)建案賞屋心得 (1)投資經濟學 (3) Arduino應用 (2)教學 (3)DIY (7) 實用的工具網站 (2)實用的工具 (7)電影評論 (1) 其他 (1)好康 (0)未分類文章 (1)本日人氣：累積人氣："
  },
  {
    "file": "12226442047.md",
    "title": "【台北善導寺美食推薦】「柒串燒屋」超平價串燒只要$19元起，擁有10年的烤功經驗，刷上獨門醬料很加分，台北聚餐小酌首選!",
    "hours": "18：00~01：30"
  },
  {
    "file": "12226448776.md",
    "title": "【台北士林夜市手搖飲推薦】頃刻間-綠豆沙牛奶專賣店，必嚐新鮮現打的綠豆沙牛奶，超級綿密順口，還能免費玩瑪莉兄弟遊戲機！（附菜單價位）",
    "hours": "平日11:30~22:30(週五至23:00)、假日16:30~23:00"
  },
  {
    "file": "12226449010.md",
    "title": "【宜蘭親子民宿推薦】卡布雷莊園民宿，裝潢精美超華麗，房間還有巧虎溜滑梯球池，小孩玩瘋了!",
    "hours": "15:00-19:00；退房時間：11:00"
  },
  {
    "file": "12226469275.md",
    "title": "【檯燈推薦】飛利浦軟萌兔多功能充電檯燈(QQ兔)，閱讀柔光二合一/隨處擺放/隨心切換，雙光源設計、充電插電兩用超方便！（實際使用心得）",
    "hours": "null"
  },
  {
    "file": "12226499590.md",
    "title": "【曲奇餅乾推薦】鴻鼎菓子-噠啵曲奇，香酥綿密不甜膩，獨家曲奇包心技術的「可可歐蕾」超喜歡，噠啵曲奇 Double驚喜！",
    "hours": "null"
  },
  {
    "file": "12226523101.md",
    "title": "【宜蘭礁溪親子餐廳】水鹿咖啡親子館，餐點多樣化，設有溜滑梯.沙坑.盪鞦韆及小火車，還可近距離餵食小動物喔！",
    "hours": "週二~週日11：00~20：30（週一公休）"
  },
  {
    "file": "12226533793.md",
    "title": "【台北居酒屋推薦】柒息地串燒居酒屋(長春店)，平價串燒搭配特製秘醬超唰嘴，秘醬燒百頁豆腐、飛魚卵香腸配啤酒超滿足，下班聚餐小酌就來這！",
    "hours": "週一~週日18：00~1：30"
  },
  {
    "file": "12226544017.md",
    "title": "【林口約會餐廳】台北一位難求的爆紅鐵板燒，全台評價最高的高檔連鎖鐵板燒-明水然・樂。",
    "hours": "11：30~15：00、17：30~22：00"
  },
  {
    "file": "12226546567.md",
    "title": "【南港室內親子樂園】貝兒絲樂園(大和戀季主題館)，將近25個遊樂區玩到瘋，自助點心飲料吃到飽，加入會員就能玩整天喔！（已歇業）",
    "hours": "週一~週日11：00 ~ 21：00。"
  },
  {
    "file": "12226552972.md",
    "title": "【淡水火鍋推薦】超人氣台式火鍋，中午限定$299的超值體驗價，新北淡水排隊名店~狂一鍋 淡水區插旗！",
    "hours": "週一~週日12：00~15：00；17：00~22：00"
  },
  {
    "file": "12226553104.md",
    "title": "【貓空景觀餐廳】貓空四爺，宮廷風小包廂用餐品茶，裝潢古色古香、獨立式包廂夜景超優，金字塔茶炒飯必吃！",
    "hours": "週一~週日10：30~22：00："
  },
  {
    "file": "12226564303.md",
    "title": "【桃園景點】忠烈祠暨神社文化園區，風鈴迴廊、祈福繪馬和手洗舍很有日本味，還有寒天豆花、市集和咖啡廳，好拍、好玩又好逛！",
    "hours": "9：00~18：00（週一公休）"
  },
  {
    "file": "12226572157.md",
    "title": "【防脹氣奶瓶推薦】一瓶抵八瓶！ 搭配Aspir 5.0防脹氣奶嘴拍嗝更快更順暢 │小獅王辛巴蘊蜜鉑金 PPSU 防脹氣奶瓶",
    "hours": "null"
  },
  {
    "file": "12226578319.md",
    "title": "【板橋燒肉推薦】發肉燒肉餐酒板橋三店，人氣干貝漢堡必點，特選牛五花脆口多汁，竟然還能吃到炸雞佛～生日壽星超驚喜！（捷運府中站美食）",
    "hours": "週一~週五17：30~23：30；週六日11：30~14：30、17：30~23：30"
  },
  {
    "file": "12226587805.md",
    "title": "【桃園咖啡廳】No worries Cafe，露營風環境超chill，逛完神社來這喝杯咖啡吧～",
    "hours": "週二~週五10：00~17：30；週六日10：00~18：00"
  },
  {
    "file": "12226613413.md",
    "title": "【宅配冰淇淋推薦】JoAngry 梅啊！義式冰淇淋，融合十年精釀熟成梅風味，低糖、低脂、低熱量，綿密清爽吃起來無負擔！",
    "hours": "null"
  },
  {
    "file": "12226614604.md",
    "title": "【宜蘭室內景點】樂色山積木博物館，上千件積木作品~小小兵、巨無霸珍奶樂高等，必玩積木健康步道，還能動手組合樂高唷！",
    "hours": "9：00~17：00（週三公休）"
  },
  {
    "file": "12226617511.md",
    "title": "【烏來溫泉會館推薦】足立司拉 SLA ULAY ，景觀家庭房寬敞舒適，擁有獨立湯屋、室外露天風呂超放鬆，下次就帶家人住這！",
    "hours": "15:00 至 20:00"
  },
  {
    "file": "12226651207.md",
    "title": "知名伴手禮品牌「上信饌玉」豆塔及金鑽鳳梨酥全新包裝上市，新口味「巧克力胡桃塔」，超級鬆脆爽口~新包裝高級素雅，送禮最佳選擇！",
    "hours": "null"
  },
  {
    "file": "12226663813.md",
    "title": "【板橋燒肉吃到飽】肉次方燒肉放題，$598元起多達50種肉品、海鮮以及生菜、副食、飲料和甜點吃到飽，桌邊現切肋眼牛排超吸引人，CP值爆表！（近捷運江子翠站）",
    "hours": "週日~週四 11：30~23：00；週五六11：00~1：00"
  },
  {
    "file": "12226677535.md",
    "title": "【2023中秋禮盒推薦】上信饌玉四款人氣禮盒開箱，小步舞曲禮盒CP值好高，能吃到三種堅果點心，柚香豆塔及中秋限定柚子酥，中秋送禮推薦！",
    "hours": "null"
  },
  {
    "file": "12226682845.md",
    "title": "【桃園八德美食】二代目久留米，「日本烏龍冷麵」清爽消暑，搭配特調醬汁很對味~來自日籍老闆的日本家庭料理，平價又美味！（咖哩/烏龍麵/焗烤/丼飯）",
    "hours": "週一~週日11:00–13:30、17:00–20:00"
  },
  {
    "file": "12226694677.md",
    "title": "【網購宅配伴手禮】「Bear Queen 熊后」牛奶莓莓-香蔥蘇打牛軋餅，口感酥脆且不黏牙超唰嘴～文青禮盒當作中秋送禮、企業送禮、辦公室零嘴超適合！",
    "hours": "null"
  },
  {
    "file": "12226697344.md",
    "title": "【台北早午餐推薦】At.First早寓，「老法牛排班尼迪克蛋早午餐」大份量超飽足，擺盤精美用心，喜歡吃早午餐的必訪！無收取服務費（近捷運忠孝敦化站）",
    "hours": "平日11:00-21:00；假日10:00-21:00"
  },
  {
    "file": "12226703218.md",
    "title": ">-",
    "hours": "null"
  },
  {
    "file": "12226712401.md",
    "title": "【育兒用品】2025熱門8款寶寶乳液實測｜無香安心嬰兒乳液 秋冬換季這樣挑",
    "hours": "null"
  },
  {
    "file": "12226720042.md",
    "title": "屏東伴手禮推薦，「大立麵包專賣店」新品棉花糖蛋糕，柔軟滑順、口味多種，還有「杏仁糖衣生乳冰淇淋泡芙」也很必吃喔！（附最新價位、訂購方式）",
    "hours": "週一~週日9：00~18：00"
  },
  {
    "file": "12226728649.md",
    "title": "【新莊早午餐推薦】克莉廚房，香酥雞排堡必點，外酥內嫩又多汁，CP值超高！(附菜單價位)",
    "hours": "週一~週五6：00~13：30；週六日6：00~14：00（週三公休）"
  },
  {
    "file": "12226739350.md",
    "title": "A2奶粉是什麼？ S26敏兒樂溫和寶寶喝得順，A2奶粉解密評價~",
    "hours": "null"
  },
  {
    "file": "12226756384.md",
    "title": "【淡水小吃美食推薦】林記肉圓，肉圓大顆外皮彈牙，還有料滿滿的豬腸湯，湯喝完都可再續哦（淡水肉圓/淡水肉粽/淡水油粿）",
    "hours": "週一～週日12:00～21:00（週三四公休）"
  },
  {
    "file": "12226761052.md",
    "title": "【APP】Weeshgifts 應用程式指南",
    "hours": "null"
  },
  {
    "file": "12226793989.md",
    "title": "典華雅聚：新莊典華，美味創意的粵菜港點！超值龍蝦港點推薦，避風塘雙龍塔的龍蝦超誘人，家庭聚餐/商務聚餐（菜單價位、必吃菜色、交通方式）",
    "hours": "11:00-14:30、17:30-21:30"
  },
  {
    "file": "12226820674.md",
    "title": "【新莊餐廳推薦】典華餐飲品牌「濤濤海鮮蒸氣鍋」菜單推薦＆交通方式，6人豪華套餐超豐盛，主打蒸氣方式烹調海鮮，貼心的管家式桌邊服務，家庭聚餐首選！",
    "hours": "周一公休"
  },
  {
    "file": "12226841701.md",
    "title": "【中和居酒屋推薦】酒聚日式居酒屋，高CP值串燒，手工黑輪片、黑頭鱈魚必嚐鮮～營業至凌晨兩點，下班吃串燒小酌的好去處！",
    "hours": "週一～週日 18:00～凌晨2:00"
  },
  {
    "file": "12226851625.md",
    "title": "【新北三峽景點】庶民美術館，三峽老街內的老屋咖啡廳，展覽藝術空間結合咖啡廳，環境文青好拍！（交通方式/菜單價位)",
    "hours": "週四～週日12:00 – 18:00（週一～週三公休）"
  },
  {
    "file": "12226867429.md",
    "title": "【宜蘭五結親子民宿】蜜雪蓮親子城堡，溜滑梯球池親子房，兒童遊戲室玩不膩，男孩最愛的電動車玩瘋啦！（宜蘭包棟民宿）",
    "hours": "null"
  },
  {
    "file": "12226917211.md",
    "title": "85度C與「超人力霸王」強強聯手首次聯名推出造型蛋糕，三款蛋糕帥氣有特色，還可收藏公仔&DIY便條紙筆筒，3/21起上市，限量售完為止！",
    "hours": "null"
  },
  {
    "file": "12226928467.md",
    "title": "【基隆新飯店推薦】「Hotel Begins 倉箱蜜境文旅」日式和風家庭房超舒適，旁邊就是海科館，入住還享免費導覽帶你遊容軒園區！",
    "hours": "早餐 07:00~11:00"
  },
  {
    "file": "12226930861.md",
    "title": "一瓶多用洗碗精推薦，「COTD伯爵植萃洗碗精」去污力強、洗完手不乾澀，洗碗.洗蔬果.洗寶寶奶瓶餐具都可以！",
    "hours": "週一至週五09:00-17:00"
  },
  {
    "file": "12226939099.md",
    "title": "2024桃園大江購物中心，母親節一站式滿足聚餐、購物、春夏打卡地標，全年免費停車！（桃園景點/送禮推薦/青埔商圈）",
    "hours": "平日/AM11:00-PM10:00 │ 週五/AM11:00-PM10:30│週六/AM11:00-PM10:30│週日/AM11:00-PM10:00│例假日前一天AM11：00-PM10:30│"
  },
  {
    "file": "12226941805.md",
    "title": "【基隆餐廳推薦】「Rain Dance 雨舞餐廳」輕美式料理豐富又美味，推薦松露野菇燉飯、手打三寶炸雞翅，大片落地窗明亮寬敞（近海科館）",
    "hours": "早餐 07:00~11:00"
  },
  {
    "file": "12226941862.md",
    "title": "基隆二日遊行程規劃，海洋主題館.容軒園區.秘境山海步道.彩色屋.親子景點，基隆兩天一夜推薦，基隆景點美食住宿！",
    "hours": "平日9:00~17:00(16:30截止入場)；例假日 9:00~18:00(17:00截止入場)"
  },
  {
    "file": "12226979965.md",
    "title": "【宜蘭蘇澳景點】計程車博物館，門票贈飲料，還有碰碰車可以玩，新設：拍貼機、扭蛋和夾娃娃機！（宜蘭室內景點）",
    "hours": "10:00–17:00"
  },
  {
    "file": "12226996390.md",
    "title": "台北信義最新打卡點！文青小百貨「吉祥道」 必逛必拍一次看，週末就來這逛逛！",
    "hours": "11:00-20:00"
  },
  {
    "file": "12227005240.md",
    "title": "2024中秋禮盒推薦，「胖肉鋪」三款人氣禮盒開箱，最愛奶皇流心餅禮盒，流沙內餡超驚豔，還有CP值超高的肉鬆餅禮盒組，中秋送禮推薦！",
    "hours": "10:00-19:00"
  },
  {
    "file": "12227045410.md",
    "title": "【宜蘭景點】超品起司烘焙工坊2.0重新改裝啦！現烤烘焙麵包.輕食下午茶.特色伴手禮，親子手作DIY起司餅乾超有趣！",
    "hours": "9:00-18:00"
  },
  {
    "file": "12227056513.md",
    "title": "【新莊景觀餐廳】「旨醞」輕奢感鐵板燒料理，吃得到活海鮮/日本A5和牛/北寄貝，眺望38F景觀絕美，菜單價位、餐點及用餐環境一次看！",
    "hours": "11:30"
  },
  {
    "file": "12227098108.md",
    "title": "台北室內景點，來「蟲蟲巴斯」輕鬆探索昆蟲生態，顯微鏡觀察課收獲滿滿，還有免費飲品享用，下雨天親子好去處～",
    "hours": "13:00-19:00"
  },
  {
    "file": "12227107204.md",
    "title": "【台北親子餐廳】陞暉恰咖啡廳，超擬真火車模型場景，火車迷必訪！",
    "hours": "12:00-20:00"
  },
  {
    "file": "12227138161.md",
    "title": "新北全新貝兒絲咖啡，六大遊戲區玩不膩，還有餅乾.數十種飲品無限暢飲，門票票價.菜單價位.輕食點心",
    "hours": "週一~週四 11：00-20：30、週五~週日 11：00-21：00 (包含國定假日)"
  },
  {
    "file": "12227144089.md",
    "title": "2024 新北耶誕城必逛攻略，美拍打卡點/遊樂設施/活動時間/交通停車一次看！",
    "hours": "11:00-22:00"
  },
  {
    "file": "12227153941.md",
    "title": "板橋居酒屋，一号基地 板橋車站店，串燒.熱炒.烤物.炒烏龍麵都好吃，中午就營業！",
    "hours": "11:00-22:00"
  },
  {
    "file": "12227166280.md",
    "title": "新莊聚餐餐廳，廣泰樓小館必點蒜香脆皮雞，每樣都無雷好吃，家庭聚餐推薦！",
    "hours": "11:00-14:00"
  },
  {
    "file": "12227175160.md",
    "title": "板橋江子翠美食，濃郁系拉麵「春㐂拉麵職人」，叉燒肉片鋪滿滿，豚骨湯頭濃郁好喝，叉燒飯也很推薦喔！",
    "hours": "11:00-14:00"
  },
  {
    "file": "12227182288.md",
    "title": "台北最難訂位吃到飽，島語自助餐廳，最新價格/菜色/心得分享",
    "hours": "6:30"
  },
  {
    "file": "12227221990.md",
    "title": "新北新店景觀餐廳，Bellyflopp Cafe必點俄羅斯牛肉飯，最喜歡大片玻璃窗座位，寵物友善的咖啡廳（附菜單價位）",
    "hours": "10:30-17:30"
  },
  {
    "file": "12227226481.md",
    "title": "台北拼圖咖啡廳，葛樂蒂咖啡館，輕食配咖啡很愜意，還能跟小孩一起拼拼圖！（附菜單價位）",
    "hours": "10:00-18:00"
  },
  {
    "file": "12227247025.md",
    "title": "2025沖繩親子自由行攻略，沖繩5天4夜行程分享！",
    "hours": "14:00"
  },
  {
    "file": "12227257294.md",
    "title": "台北東區早午餐，At.First_More早寓全新2.0升級，早午餐盤豐富，親子寵物友善餐廳！（近忠孝敦化站）",
    "hours": "11:00-21:00"
  },
  {
    "file": "12227284465.md",
    "title": "新北中和美食，KATSU鑫 豬排蓋飯(四號公園店)，外酥內嫩炸豬排好讚，味噌湯、小菜還能免費續～",
    "hours": "12:00-14:30"
  },
  {
    "file": "12227290762.md",
    "title": "新北土城樂高親子餐廳，公主樂糕殿，樂高遊戲室豐富好玩，餐點也好拍好吃！（附菜單價位）",
    "hours": "11:00-20:00"
  },
  {
    "file": "12227296090.md",
    "title": "新莊泰式餐廳推薦，「蓮花泰式小吃店」平價份量實在，最愛泰式炒河粉，百元價格吃得飽",
    "hours": "10:30-21:00"
  },
  {
    "file": "12227302747.md",
    "title": "台北中山區串燒｜燒鳥串道吉林店，平價又飽足，免費柴魚拌飯＋茶泡飯吃到飽！",
    "hours": "17:30-23:30"
  },
  {
    "file": "12227305798.md",
    "title": "台北松山區韓式烤肉推薦 ∣ 水番日韓製作所：韓式烤腸必吃！專人桌邊代烤，韓式小菜免費續超加分！",
    "hours": "17:00-22:30"
  },
  {
    "file": "12227309863.md",
    "title": "新北萬里泡湯｜小坂溫泉：家庭湯屋空間超大，乳白色硫磺泉很舒服，還能喝熱茶超讚！",
    "hours": "10:00-22:00"
  },
  {
    "file": "12227323030.md",
    "title": "新北八里早餐｜姆姆漢堡早午餐店，卡拉雞腿堡只要$60，便宜好吃、在地人推薦早餐！",
    "hours": "4:30-14:45"
  },
  {
    "file": "12227348020.md",
    "title": "新北板橋新開幕｜阪前鐵板燒，和牛套餐一次吃到A5和牛/龍蝦二吃/南非活鮑魚/北海道干貝！（近捷運新埔站）",
    "hours": "11:30-14:30"
  },
  {
    "file": "12227356096.md",
    "title": "新北中和雞湯｜享雞湯風味雞湯專賣店，暖胃雞湯＋澎湃套餐分享",
    "hours": "11:00-14:00"
  },
  {
    "file": "12227399056.md",
    "title": "台北士林親子餐廳｜甲蟲秘境親子&寵物友善餐廳，附遊戲區、甲蟲導覽體驗，必吃甲蟲鬆餅！",
    "hours": "11:00-21:00"
  },
  {
    "file": "12227422954.md",
    "title": "新北中和美食：金春喜韓廚｜小菜免費續，豬肉湯飯超暖胃！",
    "hours": "11:00-15:00"
  },
  {
    "file": "12227432593.md",
    "title": "桃園大溪餐廳｜南法玫瑰莊園，森林系玻璃屋超好拍，餐點表現意外不錯",
    "hours": "11:00-20:00"
  },
  {
    "file": "225049611.md",
    "title": "【婚紗攝影】拍婚紗照不尷尬的23種拍照姿勢，拍婚紗照前必看;女生買對NuBra就能炸乳~",
    "hours": "週一~週日13：00~21：00（週三公休）"
  },
  {
    "file": "225077269.md",
    "title": "【新北板橋髮廊推薦】AZone髮廊，迎接秋冬來個霧感藍灰色，搭配閃耀鉑金護髮，整體造型超喜歡!(近捷運江子翠站；附價位)",
    "hours": "週一～週六11：00～20：00、週日11：00～19：00"
  },
  {
    "file": "226941862.md",
    "title": "基隆二日遊行程規劃，海洋主題館.容軒園區.秘境山海步道.彩色屋.親子景點，基隆兩天一夜推薦，基隆景點美食住宿！",
    "hours": "9:00-17:00"
  },
  {
    "file": "227144089.md",
    "title": "2024 新北耶誕城必逛攻略，美拍打卡點/遊樂設施/活動時間/交通停車一次看！",
    "hours": "11:00-22:00"
  },
  {
    "file": "844792553451008760.md",
    "title": "【頂級鐵板燒推薦】阪前鐵板燒 台北安和店，主餐升級、秋冬新菜實際心得",
    "hours": "11:30-14:30"
  }
]